"","property_id","property_code","property_name","previous_name","company","financially_active","operationally_active","property_type","zip","region","county","submarket","city","operation_status","reporting_ownership","reporting_unit_count","consolidated","active_directory_name","latitude","longitude","status","division","regional_area_manager","sold_date","ga_group_name","status_group","operationally_active_group","parent_group_code","parent_group_name","year_built","year_built_range","county_group","property_name_group","property_code_group","soldthis_year","property_name_code","region_rpm_property","unit_buckets"
"1",117,"003","Cedar Terrace","Unknown","Essex","Y","Y","Residential",98004,"Seattle Metro","King","Eastside","Bellevue","Stabilized",NA,180,"Y","Unknown",47.640968,-122.188332,"Same Store","Washington","Jamie Matthews",NA,NA,"Same Store","Y","NA","NA","1984",">30 <40 Years","King","Cedar Terrace","003",0,"Cedar Terrace (003)","Seattle Metro Jamie Matthews Cedar Terrace (003)","<200"
"2",1271,"006","Corbella at Juanita Bay","Unknown","Essex","Y","Y","Residential",98034,"Seattle Metro","King","Eastside","Kirkland","Stabilized",NA,169,"Y","Unknown",47.708202,-122.213509,"Same Store","Washington","Carol Swanson",NA,NA,"Same Store","Y","NA","NA","1978","40+ Years","King","Corbella at Juanita Bay","006",0,"Corbella at Juanita Bay (006)","Seattle Metro Carol Swanson Corbella at Juanita Bay (006)","<200"
"3",34,"007","Highridge","Unknown","Essex","Y","Y","Residential",90275,"Southern California","Los Angeles","Torrance","Rancho Palos Verdes","Stabilized",NA,255,"Y","Unknown",33.776081,-118.381241,"Same Store","LA/Ventura","Lisa Holbrook",NA,NA,"Same Store","Y","NA","NA","1972","40+ Years","Los Angeles","Highridge","007",0,"Highridge (007)","Southern California Lisa Holbrook Highridge (007)",">200 Units"
"4",1269,"009","Courtyard Off Main","Unknown","Essex","Y","Y","Residential",98004,"Seattle Metro","King","Eastside","Bellevue","Stabilized",NA,110,"Y","Unknown",47.60923,-122.203293,"Same Store","Washington","Melissa Downs",NA,NA,"Same Store","Y","NA","NA","2000",">20 <30 Years","King","Courtyard Off Main","009",0,"Courtyard Off Main (009)","Seattle Metro Melissa Downs Courtyard Off Main (009)","<200"
"5",1144,"011","Bella Villagio","Unknown","Essex","Y","Y","Residential",95136,"Northern California","Santa Clara","San Jose MSA","San Jose","Stabilized",NA,231,"Y","Unknown",37.27589,-121.84922,"Same Store","Northern CA","Ali Ghatala",NA,NA,"Same Store","Y","NA","NA","2004",">15 <20 Years","Santa Clara","Bella Villagio","011",0,"Bella Villagio (011)","Northern California Ali Ghatala Bella Villagio (011)",">200 Units"
"6",472,"012","Chestnut Street Apts","Unknown","Essex","Y","Y","Residential",95060,"Northern California","Santa Cruz","Other NorCal","Santa Cruz","Stabilized",NA,96,"Y","Unknown",36.964699,-122.027809,"Non Same Store","Northern CA","Robyn Inaba",NA,NA,"Non Same Store","Y","NA","NA","2002",">15 <20 Years","Other Northern California","Chestnut Street Apts","012",0,"Chestnut Street Apts (012)","Northern California Robyn Inaba Chestnut Street Apts (012)","<200"
"7",534,"017","The Highlands at Wynhaven","Unknown","Essex","Y","Y","Residential",98029,"Seattle Metro","King","Eastside","Issaquah","Stabilized",NA,333,"Y","Unknown",47.544804,-122.009659,"Same Store","Washington","Sherrie Clevenger",NA,NA,"Same Store","Y","NA","NA","2000",">20 <30 Years","King","The Highlands at Wynhaven","017",0,"The Highlands at Wynhaven (017)","Seattle Metro Sherrie Clevenger The Highlands at Wynhaven (017)",">300 Units"
"8",676,"018","Regency at Encino","Unknown","Essex","Y","Y","Residential",91436,"Southern California","Los Angeles","Woodland Hills","Encino","Stabilized",NA,75,"Y","Unknown",34.155891,-118.472038,"Same Store","LA/Ventura","Crystal Rodgers",NA,NA,"Same Store","Y","NA","NA","1989",">30 <40 Years","Los Angeles","Regency at Encino","018",0,"Regency at Encino (018)","Southern California Crystal Rodgers Regency at Encino (018)","<200"
"9",921,"020","Elevation","Unknown","Essex","Y","Y","Residential",98052,"Seattle Metro","King","Eastside","Redmond","Stabilized",NA,158,"Y","Unknown",47.679914,-122.107131,"Same Store","Washington","Suzanne Bachler",NA,NA,"Same Store","Y","NA","NA","1986",">30 <40 Years","King","Elevation","020",0,"Elevation (020)","Seattle Metro Suzanne Bachler Elevation (020)","<200"
"10",735,"022","Skyline","Unknown","Essex","Y","Y","Residential",92707,"Southern California","Orange","North Orange","Santa Ana","Stabilized",NA,350,"Y","Unknown",33.698997,-117.86557,"Same Store","OC/San Diego","Brent Christianson",NA,NA,"Same Store","Y","NA","NA","2008",">10 <15 Years","Orange","Skyline","022",0,"Skyline (022)","Southern California Brent Christianson Skyline (022)",">300 Units"
"11",840,"023","101 San Fernando","Unknown","Essex","Y","Y","Residential",95112,"Northern California","Santa Clara","San Jose MSA","San Jose","Stabilized",NA,323,"Y","Unknown",37.335529,-121.887001,"Same Store","Northern CA","James Zhou",NA,NA,"Same Store","Y","NA","NA","2001",">15 <20 Years","Santa Clara","101 San Fernando","023",0,"101 San Fernando (023)","Northern California James Zhou 101 San Fernando (023)",">300 Units"
"12",1008,"025","The Commons","Unknown","Essex","Y","Y","Residential",95008,"Northern California","Santa Clara","San Jose MSA","Campbell","Stabilized",NA,264,"Y","Unknown",37.282837,-121.938171,"Same Store","Northern CA","Ali Ghatala",NA,NA,"Same Store","Y","NA","NA","1973","40+ Years","Santa Clara","The Commons","025",0,"The Commons (025)","Northern California Ali Ghatala The Commons (025)",">200 Units"
"13",6,"027","Avondale @ Warner Center","Unknown","Essex","Y","Y","Residential",91367,"Southern California","Los Angeles","Woodland Hills","Woodland Hills","Stabilized",NA,446,"Y","Unknown",34.18539,-118.611816,"Same Store","LA/Ventura","Elizabeth Rodriguez",NA,NA,"Same Store","Y","NA","NA","1970","40+ Years","Los Angeles","Avondale @ Warner Center","027",0,"Avondale @ Warner Center (027)","Southern California Elizabeth Rodriguez Avondale @ Warner Center (027)","400+"
"14",106,"028","Alpine Village","Unknown","Essex","Y","Y","Residential",91901,"Southern California","San Diego","Other SoCal","Alpine","Stabilized",NA,301,"Y","Unknown",32.836075,-116.770592,"Same Store","OC/San Diego","Nick Allen",NA,NA,"Same Store","Y","NA","NA","1971","40+ Years","San Diego","Alpine Village","028",0,"Alpine Village (028)","Southern California Nick Allen Alpine Village (028)",">300 Units"
"15",11,"030","Bristol Commons","Unknown","Essex","Y","Y","Residential",94086,"Northern California","Santa Clara","San Jose MSA","Sunnyvale","Stabilized",NA,188,"Y","Unknown",37.371674,-122.016647,"Same Store","Northern CA","Amir Sheikh",NA,NA,"Same Store","Y","NA","NA","1989",">30 <40 Years","Santa Clara","Bristol Commons","030",0,"Bristol Commons (030)","Northern California Amir Sheikh Bristol Commons (030)","<200"
"16",137,"031","Belmont Terrace","Unknown","Essex","Y","Y","Residential",94002,"Northern California","San Mateo","San Mateo","Belmont","Stabilized",NA,71,"Y","Unknown",37.510078,-122.302109,"Same Store","Northern CA","Nicole Conrad",NA,NA,"Same Store","Y","NA","NA","1970","40+ Years","San Mateo","Belmont Terrace","031",0,"Belmont Terrace (031)","Northern California Nicole Conrad Belmont Terrace (031)","<200"
"17",12,"032","Bunker Hill Towers","Unknown","Essex","Y","Y","Residential",90012,"Southern California","Los Angeles","Los Angeles CBD","Los Angeles","Stabilized",NA,456,"Y","Unknown",34.056026,-118.253532,"Non Same Store","LA/Ventura","Richard Resos",NA,NA,"Non Same Store","Y","NA","NA","1968","40+ Years","Los Angeles","Bunker Hill Towers","032",0,"Bunker Hill Towers (032)","Southern California Richard Resos Bunker Hill Towers (032)","400+"
"18",85,"033","Bonita Cedars","Unknown","Essex","Y","Y","Residential",91902,"Southern California","San Diego","Chula Vista","Bonita","Stabilized",NA,120,"Y","Unknown",32.679928,-117.027,"Same Store","OC/San Diego","Jenifer Bulskov",NA,NA,"Same Store","Y","NA","NA","1983",">30 <40 Years","San Diego","Bonita Cedars","033",0,"Bonita Cedars (033)","Southern California Jenifer Bulskov Bonita Cedars (033)","<200"
"19",16,"034","Brighton Ridge Apartments","Unknown","Essex","Y","Y","Residential",98056,"Seattle Metro","King","South","Renton","Stabilized",NA,264,"Y","Unknown",47.487476,-122.186821,"Same Store","Washington","Sherrie Clevenger",NA,NA,"Same Store","Y","NA","NA","1986",">30 <40 Years","King","Brighton Ridge Apartments","034",0,"Brighton Ridge Apartments (034)","Seattle Metro Sherrie Clevenger Brighton Ridge Apartments (034)",">200 Units"
"20",17,"035","Bridle Trails Apartments","Unknown","Essex","Y","Y","Residential",98033,"Seattle Metro","King","Eastside","Kirkland","Stabilized",NA,108,"Y","Unknown",47.666164,-122.167603,"Same Store","Washington","Carol Swanson",NA,NA,"Same Store","Y","NA","NA","1986",">30 <40 Years","King","Bridle Trails Apartments","035",0,"Bridle Trails Apartments (035)","Seattle Metro Carol Swanson Bridle Trails Apartments (035)","<200"
"21",1943,"036","Bellerive","Unknown","Essex","Y","Y","Residential",90025,"Southern California","Los Angeles","West LA","Los Angeles","Stabilized",NA,63,"Y","Unknown",34.042553,-118.44368,"Same Store","LA/Ventura","Lisa Holbrook",NA,NA,"Same Store","Y","NA","NA","2011",">5 <10 Years","Los Angeles","Bellerive","036",0,"Bellerive (036)","Southern California Lisa Holbrook Bellerive (036)","<200"
"22",143,"040","CBC/Sweeps","Unknown","Essex","Y","Y","Residential",93117,"Southern California","Santa Barbara","Other SoCal","Goleta","Stabilized",NA,239,"Y","Unknown",34.416744,-119.86367,"Non Same Store","LA/Ventura","Bridgit Susim",NA,NA,"Non Same Store","Y","NA","NA","1962","40+ Years","Other Southern California","CBC/Sweeps","040 & 057",0,"CBC/Sweeps (040 & 057)","Southern California Bridgit Susim CBC/Sweeps (040 & 057)",">200 Units"
"23",19,"041","Castle Creek Apartments","Unknown","Essex","Y","Y","Residential",98059,"Seattle Metro","King","Eastside","Newcastle","Stabilized",NA,216,"Y","Unknown",47.539894,-122.162392,"Same Store","Washington","Sherrie Clevenger",NA,NA,"Same Store","Y","NA","NA","1998",">20 <30 Years","King","Castle Creek Apartments","041",0,"Castle Creek Apartments (041)","Seattle Metro Sherrie Clevenger Castle Creek Apartments (041)",">200 Units"
"24",1352,"042","Anavia","Unknown","Essex","Y","Y","Residential",92806,"Southern California","Orange","North Orange","Anaheim","Stabilized",NA,250,"Y","Unknown",33.797569,-117.889297,"Same Store","OC/San Diego","Brent Christianson",NA,NA,"Same Store","Y","NA","NA","2009",">10 <15 Years","Orange","Anavia","042",0,"Anavia (042)","Southern California Brent Christianson Anavia (042)",">200 Units"
"25",92,"050","Canyon Pointe","Unknown","Essex","Y","Y","Residential",98021,"Seattle Metro","Snohomish","Snohomish","Bothell","Stabilized",NA,250,"Y","Unknown",47.791302,-122.211853,"Same Store","Washington","Melissa Gerard",NA,NA,"Same Store","Y","NA","NA","1990",">30 <40 Years","Snohomish","Canyon Pointe","050",0,"Canyon Pointe (050)","Seattle Metro Melissa Gerard Canyon Pointe (050)",">200 Units"
"26",21,"051","Camarillo Oaks Apartments","Unknown","Essex","Y","Y","Residential",93010,"Southern California","Ventura","Ventura","Camarillo","Stabilized",NA,564,"Y","Unknown",34.221504,-119.056862,"Same Store","LA/Ventura","Bridgit Susim",NA,NA,"Same Store","Y","NA","NA","1985",">30 <40 Years","Ventura","Camarillo Oaks Apartments","051",0,"Camarillo Oaks Apartments (051)","Southern California Bridgit Susim Camarillo Oaks Apartments (051)","400+"
"27",5256,"055","Piedmont","Unknown","Essex","Y","Y","Residential",98007,"Seattle Metro","King","Eastside","Bellevue","Stabilized",NA,396,"Y","Unknown",47.621677,-122.135643,"Same Store","Washington","Suzanne Bachler",NA,NA,"Same Store","Y","NA","NA","#UNKN","","King","Piedmont","055",0,"Piedmont (055)","Seattle Metro Suzanne Bachler Piedmont (055)",">300 Units"
"28",105,"056","Country Villas","Unknown","Essex","Y","Y","Residential",92058,"Southern California","San Diego","Oceanside/Esc","Oceanside","Stabilized",NA,180,"Y","Unknown",33.233349,-117.324669,"Same Store","OC/San Diego","Kevin Forsyth",NA,NA,"Same Store","Y","NA","NA","1976","40+ Years","San Diego","Country Villas","056",0,"Country Villas (056)","Southern California Kevin Forsyth Country Villas (056)","<200"
"29",154,"058","Devonshire Apartments","Unknown","Essex","Y","Y","Residential",92545,"Southern California","Riverside","Other SoCal","Hemet","Stabilized",NA,276,"Y","Unknown",33.751045,-117.000023,"Non Same Store","OC/San Diego","Mark Yepez",NA,NA,"Non Same Store","Y","NA","NA","1988",">30 <40 Years","Other Southern California","Devonshire Apartments","058",0,"Devonshire Apartments (058)","Southern California Mark Yepez Devonshire Apartments (058)",">200 Units"
"30",3086,"061","Park Catalina","Unknown","Essex","Y","Y","Residential",90005,"Southern California","Los Angeles","West LA","Los Angeles","Stabilized",NA,90,"Y","Unknown",34.060181,-118.295044,"Same Store","LA/Ventura","Richard Resos",NA,NA,"Same Store","Y","NA","NA","2002",">15 <20 Years","Los Angeles","Park Catalina","061",0,"Park Catalina (061)","Southern California Richard Resos Park Catalina (061)","<200"
"31",24,"063","Evergreen Heights","Unknown","Essex","Y","Y","Residential",98034,"Seattle Metro","King","Eastside","Kirkland","Stabilized",NA,200,"Y","Unknown",47.717613,-122.176834,"Same Store","Washington","Carol Swanson",NA,NA,"Same Store","Y","NA","NA","1990",">30 <40 Years","King","Evergreen Heights","063",0,"Evergreen Heights (063)","Seattle Metro Carol Swanson Evergreen Heights (063)",">200 Units"
"32",25,"066","Emerald Ridge","Unknown","Essex","Y","Y","Residential",98005,"Seattle Metro","King","Eastside","Bellevue","Stabilized",NA,180,"Y","Unknown",47.583237,-122.180145,"Same Store","Washington","Sherrie Clevenger",NA,NA,"Same Store","Y","NA","NA","1987",">30 <40 Years","King","Emerald Ridge","066",0,"Emerald Ridge (066)","Seattle Metro Sherrie Clevenger Emerald Ridge (066)","<200"
"33",28,"068","Fairway @ Big Canyon Apartments","Unknown","Essex","Y","Y","Residential",92660,"Southern California","Orange","South Orange","Newport Beach","Stabilized",NA,74,"Y","Unknown",33.617355,-117.868523,"Same Store","OC/San Diego","Kevin Forsyth",NA,NA,"Same Store","Y","NA","NA","1972","40+ Years","Orange","Fairway @ Big Canyon Apartments","068",0,"Fairway @ Big Canyon Apartments (068)","Southern California Kevin Forsyth Fairway @ Big Canyon Apartments (068)","<200"
"34",29,"069","Foothill Commons","Unknown","Essex","Y","Y","Residential",98005,"Seattle Metro","King","Eastside","Bellevue","Stabilized",NA,394,"Y","Unknown",47.6179402,-122.1596425,"Same Store","Washington","Suzanne Bachler",NA,NA,"Same Store","Y","NA","NA","1978","40+ Years","King","Foothill Commons","069",0,"Foothill Commons (069)","Seattle Metro Suzanne Bachler Foothill Commons (069)",">300 Units"
"35",27,"070","Fountain Court","Unknown","Essex","Y","Y","Residential",98121,"Seattle Metro","King","Seattle CBD","Seattle","Stabilized",NA,320,"Y","Unknown",47.616345,-122.345606,"Same Store","Washington","Melissa Downs",NA,NA,"Same Store","Y","NA","NA","2000",">20 <30 Years","King","Fountain Court","070",0,"Fountain Court (070)","Seattle Metro Melissa Downs Fountain Court (070)",">300 Units"
"36",96,"071","Fountain Park","Unknown","Essex","Y","Y","Residential",90094,"Southern California","Los Angeles","West LA","Playa Vista","Stabilized",NA,705,"Y","Unknown",33.974621,-118.42894,"Same Store","LA/Ventura","Lisa Holbrook",NA,NA,"Same Store","Y","NA","NA","2002",">15 <20 Years","Los Angeles","Fountain Park","071",0,"Fountain Park (071)","Southern California Lisa Holbrook Fountain Park (071)","400+"
"37",31,"073","Foothill/Twin Creeks","Unknown","Essex","Y","Y","Residential",94583,"Northern California","Contra Costa","San Ramon","San Ramon","Stabilized",NA,176,"Y","Unknown",37.757835,-121.967331,"Same Store","Northern CA","Vanessa Liclican",NA,NA,"Same Store","Y","NA","NA","1985",">30 <40 Years","Contra Costa","Foothill/Twin Creeks","073",0,"Foothill/Twin Creeks (073)","Northern California Vanessa Liclican Foothill/Twin Creeks (073)","<200"
"38",91,"074","Forestview","Unknown","Essex","Y","Y","Residential",98059,"Seattle Metro","King","South","Renton","Stabilized",NA,192,"Y","Unknown",47.495544,-122.156502,"Same Store","Washington","Sherrie Clevenger",NA,NA,"Same Store","Y","NA","NA","1998",">20 <30 Years","King","Forestview","074",0,"Forestview (074)","Seattle Metro Sherrie Clevenger Forestview (074)","<200"
"39",1279,"078","Santee Court","Unknown","Essex","Y","Y","Residential",90014,"Southern California","Los Angeles","Los Angeles CBD","Los Angeles","Stabilized",NA,238,"Y","Unknown",34.043102,-118.250488,"Same Store","LA/Ventura","Richard Resos",NA,NA,"Same Store","Y","NA","NA","2004",">15 <20 Years","Los Angeles","Santee Court","077-078",0,"Santee Court (077-078)","Southern California Richard Resos Santee Court (077-078)",">200 Units"
"40",32,"080","Huntington Breakers Apartments","Unknown","Essex","Y","Y","Residential",92648,"Southern California","Orange","North Orange","Huntington Beach","Stabilized",NA,342,"Y","Unknown",33.653847,-117.987915,"Same Store","OC/San Diego","Cynthia Cifuentes",NA,NA,"Same Store","Y","NA","NA","1984",">30 <40 Years","Orange","Huntington Breakers Apartments","080",0,"Huntington Breakers Apartments (080)","Southern California Cynthia Cifuentes Huntington Breakers Apartments (080)",">300 Units"
"41",120,"083","Hidden Valley","Unknown","Essex","Y","Y","Residential",93063,"Southern California","Ventura","Ventura","Simi Valley","Stabilized",NA,324,"Y","Unknown",34.270931,-118.69381,"Same Store","LA/Ventura","Elizabeth Rodriguez",NA,NA,"Same Store","Y","NA","NA","2004",">15 <20 Years","Ventura","Hidden Valley","083",0,"Hidden Valley (083)","Southern California Elizabeth Rodriguez Hidden Valley (083)",">300 Units"
"42",36,"084","Inglenook Court","Unknown","Essex","Y","Y","Residential",98034,"Seattle Metro","King","Eastside","Kirkland","Stabilized",NA,224,"Y","Unknown",47.729149,-122.243385,"Same Store","Washington","Carol Swanson",NA,NA,"Same Store","Y","NA","NA","1985",">30 <40 Years","King","Inglenook Court","084",0,"Inglenook Court (084)","Seattle Metro Carol Swanson Inglenook Court (084)",">200 Units"
"43",38,"086","Blake LA, The","Unknown","Essex","Y","Y","Residential",90069,"Southern California","Los Angeles","West LA","Los Angeles","Stabilized",NA,196,"Y","Unknown",34.084538,-118.372154,"Same Store","LA/Ventura","Lisa Holbrook",NA,NA,"Same Store","Y","NA","NA","1979","40+ Years","Los Angeles","Blake LA, The","086",0,"Blake LA, The (086)","Southern California Lisa Holbrook Blake LA, The (086)","<200"
"44",40,"087","Henley, The","Unknown","Essex","Y","Y","Residential",91202,"Southern California","Los Angeles","Tri-Cities LA","Glendale","Stabilized",NA,215,"Y","Unknown",34.162724,-118.261375,"Same Store","LA/Ventura","Crystal Rodgers",NA,NA,"Same Store","Y","NA","NA","1970","40+ Years","Los Angeles","Henley, The","087",0,"Henley, The (087)","Southern California Crystal Rodgers Henley, The (087)",">200 Units"
"45",46,"092","Mirabella Apartments","Unknown","Essex","Y","Y","Residential",90292,"Southern California","Los Angeles","West LA","Marina Del Rey","Stabilized",NA,188,"Y","Unknown",33.985092,-118.446548,"Same Store","LA/Ventura","Lisa Holbrook",NA,NA,"Same Store","Y","NA","NA","2000",">20 <30 Years","Los Angeles","Mirabella Apartments","092",0,"Mirabella Apartments (092)","Southern California Lisa Holbrook Mirabella Apartments (092)","<200"
"46",44,"093","Hillcrest Park Apartments","Unknown","Essex","Y","Y","Residential",91320,"Southern California","Ventura","Ventura","Newbury Park","Stabilized",NA,608,"Y","Unknown",34.186966,-118.918732,"Same Store","LA/Ventura","Bridgit Susim",NA,NA,"Same Store","Y","NA","NA","1973","40+ Years","Ventura","Hillcrest Park Apartments","093",0,"Hillcrest Park Apartments (093)","Southern California Bridgit Susim Hillcrest Park Apartments (093)","400+"
"47",45,"094","Marina Cove","Unknown","Essex","Y","Y","Residential",95051,"Northern California","Santa Clara","San Jose MSA","Santa Clara","Stabilized",NA,292,"Y","Unknown",37.348534,-121.991066,"Same Store","Northern CA","Davina Slusher",NA,NA,"Same Store","Y","NA","NA","1974","40+ Years","Santa Clara","Marina Cove","094",0,"Marina Cove (094)","Northern California Davina Slusher Marina Cove (094)",">200 Units"
"48",94,"095","The Promenade at Marina City Club","Unknown","Essex","Y","Y","Residential",90292,"Southern California","Los Angeles","West LA","Marina Del Rey","Stabilized",NA,101,"Y","Unknown",33.983967,-118.452744,"Same Store","LA/Ventura","Lisa Holbrook",NA,NA,"Same Store","Y","NA","NA","1971","40+ Years","Los Angeles","The Promenade at Marina City Club","095",0,"The Promenade at Marina City Club (095)","Southern California Lisa Holbrook The Promenade at Marina City Club (095)","<200"
"49",125,"100","Mission Hills","Unknown","Essex","Y","Y","Residential",92057,"Southern California","San Diego","Oceanside/Esc","Oceanside","Stabilized",NA,282,"Y","Unknown",33.223537,-117.319801,"Same Store","OC/San Diego","Kevin Forsyth",NA,NA,"Same Store","Y","NA","NA","1984",">30 <40 Years","San Diego","Mission Hills","100",0,"Mission Hills (100)","Southern California Kevin Forsyth Mission Hills (100)",">200 Units"
"50",48,"102","Mariners Place","Unknown","Essex","Y","Y","Residential",93030,"Southern California","Ventura","Ventura","Oxnard","Stabilized",NA,105,"Y","Unknown",34.194386,-119.180496,"Same Store","LA/Ventura","Elizabeth Rodriguez",NA,NA,"Same Store","Y","NA","NA","1987",">30 <40 Years","Ventura","Mariners Place","102",0,"Mariners Place (102)","Southern California Elizabeth Rodriguez Mariners Place (102)","<200"
"51",84,"103","Marbrisa Apartments Homes","Unknown","Essex","Y","Y","Residential",90815,"Southern California","Los Angeles","Long Beach","Long Beach","Stabilized",NA,202,"Y","Unknown",33.790558,-118.146301,"Same Store","LA/Ventura","Mark Yepez",NA,NA,"Same Store","Y","NA","NA","1989",">30 <40 Years","Los Angeles","Marbrisa Apartments Homes","103",0,"Marbrisa Apartments Homes (103)","Southern California Mark Yepez Marbrisa Apartments Homes (103)",">200 Units"
"52",214,"106","Mesa Village","Unknown","Essex","Y","Y","Residential",92117,"Southern California","San Diego","North City/Coast","San Diego","Stabilized",NA,133,"Y","Unknown",32.834122,-117.177696,"Same Store","OC/San Diego","Nick Allen",NA,NA,"Same Store","Y","NA","NA","1963","40+ Years","San Diego","Mesa Village","106",0,"Mesa Village (106)","Southern California Nick Allen Mesa Village (106)","<200"
"53",89,"108","Mira Monte Apartment Homes","Unknown","Essex","Y","Y","Residential",92126,"Southern California","San Diego","North City/Coast","San Diego","Stabilized",NA,354,"Y","Unknown",32.905678,-117.117073,"Same Store","OC/San Diego","Jenifer Bulskov",NA,NA,"Same Store","Y","NA","NA","1982",">30 <40 Years","San Diego","Mira Monte Apartment Homes","108",0,"Mira Monte Apartment Homes (108)","Southern California Jenifer Bulskov Mira Monte Apartment Homes (108)",">300 Units"
"54",51,"109","Montclaire, The","Unknown","Essex","Y","Y","Residential",94085,"Northern California","Santa Clara","San Jose MSA","Sunnyvale","Stabilized",NA,390,"Y","Unknown",37.386967,-122.0298,"Same Store","Northern CA","Amir Sheikh",NA,NA,"Same Store","Y","NA","NA","1973","40+ Years","Santa Clara","Montclaire, The","109",0,"Montclaire, The (109)","Northern California Amir Sheikh Montclaire, The (109)",">300 Units"
"55",52,"110","Pathways Apartments","Unknown","Essex","Y","Y","Residential",90803,"Southern California","Los Angeles","Long Beach","Long Beach","Stabilized",NA,296,"Y","Unknown",33.771088,-118.116577,"Same Store","LA/Ventura","Mark Yepez",NA,NA,"Same Store","Y","NA","NA","1975","40+ Years","Los Angeles","Pathways Apartments","110",0,"Pathways Apartments (110)","Southern California Mark Yepez Pathways Apartments (110)",">200 Units"
"56",111,"111","Park Hill Apartments","Unknown","Essex","Y","Y","Residential",98029,"Seattle Metro","King","Eastside","Issaquah","Stabilized",NA,245,"Y","Unknown",47.551975,-122.038246,"Same Store","Washington","Sherrie Clevenger",NA,NA,"Same Store","Y","NA","NA","1999",">20 <30 Years","King","Park Hill Apartments","111",0,"Park Hill Apartments (111)","Seattle Metro Sherrie Clevenger Park Hill Apartments (111)",">200 Units"
"57",119,"112","Pinehurst Apartments","Unknown","Essex","Y","Y","Residential",93003,"Southern California","Ventura","Ventura","Ventura","Stabilized",NA,28,"Y","Unknown",34.27354,-119.241158,"Same Store","LA/Ventura","Maggie Angulo",NA,NA,"Same Store","Y","NA","NA","1973","40+ Years","Ventura","Pinehurst Apartments","112",0,"Pinehurst Apartments (112)","Southern California Maggie Angulo Pinehurst Apartments (112)","<200"
"58",1375,"113","416 on Broadway","Unknown","Essex","Y","Y","Residential",91205,"Southern California","Los Angeles","Tri-Cities LA","Glendale","Stabilized",NA,115,"Y","Unknown",34.146278,-118.251099,"Same Store","LA/Ventura","Crystal Rodgers",NA,NA,"Same Store","Y","NA","NA","2009",">10 <15 Years","Los Angeles","416 on Broadway","113",0,"416 on Broadway (113)","Southern California Crystal Rodgers 416 on Broadway (113)","<200"
"59",2084,"115","Bernard","Unknown","Essex","Y","Y","Residential",98109,"Seattle Metro","King","Seattle CBD","Seattle","Stabilized",NA,63,"Y","Unknown",47.619099,-122.354515,"Same Store","Washington","Jillian LeMay",NA,NA,"Same Store","Y","NA","NA","2008",">10 <15 Years","King","Bernard","115",0,"Bernard (115)","Seattle Metro Jillian LeMay Bernard (115)","<200"
"60",54,"116","Le Parc Luxury Apt.","Unknown","Essex","Y","Y","Residential",95050,"Northern California","Santa Clara","San Jose MSA","Santa Clara","Stabilized",NA,140,"Y","Unknown",37.336994,-121.950645,"Same Store","Northern CA","Ali Ghatala",NA,NA,"Same Store","Y","NA","NA","1975","40+ Years","Santa Clara","Le Parc Luxury Apt.","116",0,"Le Parc Luxury Apt. (116)","Northern California Ali Ghatala Le Parc Luxury Apt. (116)","<200"
"61",55,"117","Miracle Mile","Unknown","Essex","Y","Y","Residential",90036,"Southern California","Los Angeles","West LA","Los Angeles","Stabilized",NA,236,"Y","Unknown",34.064404,-118.346901,"Same Store","LA/Ventura","Selena Kerr",NA,NA,"Same Store","Y","NA","NA","1988",">30 <40 Years","Los Angeles","Miracle Mile","117",0,"Miracle Mile (117)","Southern California Selena Kerr Miracle Mile (117)",">200 Units"
"62",3376,"118","Park West","Unknown","Essex","Y","Y","Residential",94122,"Northern California","San Francisco","San Francisco","San Francisco","Stabilized",NA,126,"Y","Unknown",37.765289,-122.471107,"Same Store","Northern CA","Erica Rangel",NA,NA,"Same Store","Y","NA","NA","1958","40+ Years","San Francisco","Park West","118",0,"Park West (118)","Northern California Erica Rangel Park West (118)","<200"
"63",1649,"121","1000 Kiely","Unknown","Essex","Y","Y","Residential",95051,"Northern California","Santa Clara","San Jose MSA","Santa Clara","Stabilized",NA,121,"Y","Unknown",37.344494,-121.978516,"Same Store","Northern CA","Ali Ghatala",NA,NA,"Same Store","Y","NA","NA","1971","40+ Years","Santa Clara","1000 Kiely","121",0,"1000 Kiely (121)","Northern California Ali Ghatala 1000 Kiely (121)","<200"
"64",3107,"123","The Huntington","Unknown","Essex","Y","Y","Residential",92647,"Southern California","Orange","North Orange","Huntington Beach","Stabilized",NA,276,"Y","Unknown",33.729111,-117.982162,"Same Store","OC/San Diego","Cynthia Cifuentes",NA,NA,"Same Store","Y","NA","NA","1975","40+ Years","Orange","The Huntington","123",0,"The Huntington (123)","Southern California Cynthia Cifuentes The Huntington (123)",">200 Units"
"65",59,"127","San Marcos","Unknown","Essex","Y","Y","Residential",94806,"Northern California","Contra Costa","Other NorCal","Richmond","Stabilized",NA,432,"Y","Unknown",37.987755,-122.336769,"Same Store","Northern CA","Abigail Dizon",NA,NA,"Same Store","Y","NA","NA","2003",">15 <20 Years","Contra Costa","San Marcos","127",0,"San Marcos (127)","Northern California Abigail Dizon San Marcos (127)","400+"
"66",3109,"128","Montebello","Unknown","Essex","Y","Y","Residential",98034,"Seattle Metro","King","Eastside","Kirkland","Stabilized",NA,248,"Y","Unknown",47.707699,-122.166428,"Same Store","Washington","Carol Swanson",NA,NA,"Same Store","Y","NA","NA","1996",">20 <30 Years","King","Montebello","128",0,"Montebello (128)","Seattle Metro Carol Swanson Montebello (128)",">200 Units"
"67",60,"129","Summerhill Park","Unknown","Essex","Y","Y","Residential",94085,"Northern California","Santa Clara","San Jose MSA","Sunnyvale","Stabilized",NA,100,"Y","Unknown",37.391003,-122.043213,"Same Store","Northern CA","Amir Sheikh",NA,NA,"Same Store","Y","NA","NA","1988",">30 <40 Years","Santa Clara","Summerhill Park","129",0,"Summerhill Park (129)","Northern California Amir Sheikh Summerhill Park (129)","<200"
"68",2582,"130","Reed Square","Unknown","Essex","Y","Y","Residential",94086,"Northern California","Santa Clara","San Jose MSA","Sunnyvale","Stabilized",NA,100,"Y","Unknown",37.366741,-122.001381,"Same Store","Northern CA","Davina Slusher",NA,NA,"Same Store","Y","NA","NA","1970","40+ Years","Santa Clara","Reed Square","130",0,"Reed Square (130)","Northern California Davina Slusher Reed Square (130)","<200"
"69",104,"131","Shadow Point","Unknown","Essex","Y","Y","Residential",91977,"Southern California","San Diego","Chula Vista","Spring Valley","Stabilized",NA,172,"Y","Unknown",32.745991,-116.985802,"Same Store","OC/San Diego","Nick Allen",NA,NA,"Same Store","Y","NA","NA","1983",">30 <40 Years","San Diego","Shadow Point","131",0,"Shadow Point (131)","Southern California Nick Allen Shadow Point (131)","<200"
"70",90,"132","Summit Park Village Apartments","Unknown","Essex","Y","Y","Residential",92119,"Southern California","San Diego","North City/Coast","San Diego","Stabilized",NA,300,"Y","Unknown",32.798836,-117.013672,"Same Store","OC/San Diego","Jenifer Bulskov",NA,NA,"Same Store","Y","NA","NA","1972","40+ Years","San Diego","Summit Park Village Apartments","132",0,"Summit Park Village Apartments (132)","Southern California Jenifer Bulskov Summit Park Village Apartments (132)",">300 Units"
"71",61,"133","Salmon Run @ Perry Creek","Unknown","Essex","Y","Y","Residential",98021,"Seattle Metro","Snohomish","Snohomish","Bothell","Stabilized",NA,132,"Y","Unknown",47.792374,-122.203789,"Same Store","Washington","Kim Levesque",NA,NA,"Same Store","Y","NA","NA","2000",">20 <30 Years","Snohomish","Salmon Run @ Perry Creek","133",0,"Salmon Run @ Perry Creek (133)","Seattle Metro Kim Levesque Salmon Run @ Perry Creek (133)","<200"
"72",63,"134","Sammamish View","Unknown","Essex","Y","Y","Residential",98008,"Seattle Metro","King","Eastside","Bellevue","Stabilized",NA,153,"Y","Unknown",47.576382,-122.12484,"Same Store","Washington","Sherrie Clevenger",NA,NA,"Same Store","Y","NA","NA","1986",">30 <40 Years","King","Sammamish View","134",0,"Sammamish View (134)","Seattle Metro Sherrie Clevenger Sammamish View (134)","<200"
"73",62,"135","Stonehedge Village","Unknown","Essex","Y","Y","Residential",98011,"Seattle Metro","King","Eastside","Bothell","Stabilized",NA,196,"Y","Unknown",47.736557,-122.21785,"Same Store","Washington","Carol Swanson",NA,NA,"Same Store","Y","NA","NA","1986",">30 <40 Years","King","Stonehedge Village","135",0,"Stonehedge Village (135)","Seattle Metro Carol Swanson Stonehedge Village (135)","<200"
"74",64,"136","Stevenson Place","Unknown","Essex","Y","Y","Residential",94538,"Northern California","Alameda","Fremont","Fremont","Stabilized",NA,200,"Y","Unknown",37.539097,-121.974495,"Same Store","Northern CA","Carrie Hughes",NA,NA,"Same Store","Y","NA","NA","1975","40+ Years","Alameda","Stevenson Place","136",0,"Stevenson Place (136)","Northern California Carrie Hughes Stevenson Place (136)",">200 Units"
"75",14,"137","CentrePointe","Unknown","Essex","Y","Y","Residential",92108,"Southern California","San Diego","North City/Coast","San Diego","Stabilized",NA,224,"Y","Unknown",32.76701,-117.176804,"Same Store","OC/San Diego","Jenifer Bulskov",NA,NA,"Same Store","Y","NA","NA","1974","40+ Years","San Diego","CentrePointe","137",0,"CentrePointe (137)","Southern California Jenifer Bulskov CentrePointe (137)",">200 Units"
"76",68,"141","Laurels @ Mill Creek, The","Unknown","Essex","Y","Y","Residential",98012,"Seattle Metro","Snohomish","Snohomish","Mill Creek","Stabilized",NA,164,"Y","Unknown",47.849503,-122.217216,"Same Store","Washington","Carol Swanson",NA,NA,"Same Store","Y","NA","NA","1981",">30 <40 Years","Snohomish","Laurels @ Mill Creek, The","141",0,"Laurels @ Mill Creek, The (141)","Seattle Metro Carol Swanson Laurels @ Mill Creek, The (141)","<200"
"77",70,"144","Palisades, The","Unknown","Essex","Y","Y","Residential",98005,"Seattle Metro","King","Eastside","Bellevue","Stabilized",NA,192,"Y","Unknown",47.620869,-122.155495,"Same Store","Washington","Suzanne Bachler",NA,NA,"Same Store","Y","NA","NA","1977","40+ Years","King","Palisades, The","144",0,"Palisades, The (144)","Seattle Metro Suzanne Bachler Palisades, The (144)","<200"
"78",10,"145","Bel Air Fairway Apartment Homes","Unknown","Essex","Y","Y","Residential",94582,"Northern California","Contra Costa","San Ramon","San Ramon","Stabilized",NA,462,"Y","Unknown",37.78281,-121.938164,"Same Store","Northern CA","Abigail Dizon",NA,NA,"Same Store","Y","NA","NA","1988",">30 <40 Years","Contra Costa","Bel Air Fairway Apartment Homes","145",0,"Bel Air Fairway Apartment Homes (145)","Northern California Abigail Dizon Bel Air Fairway Apartment Homes (145)","400+"
"79",71,"146","Boulevard Apts","Unknown","Essex","Y","Y","Residential",94538,"Northern California","Alameda","Fremont","Fremont","Stabilized",NA,172,"Y","Unknown",37.540554,-121.972832,"Same Store","Northern CA","Carrie Hughes",NA,NA,"Same Store","Y","NA","NA","1978","40+ Years","Alameda","Boulevard Apts","146",0,"Boulevard Apts (146)","Northern California Carrie Hughes Boulevard Apts (146)","<200"
"80",3379,"147","Willow Lake","Unknown","Essex","Y","Y","Residential",95131,"Northern California","Santa Clara","San Jose MSA","San Jose","Stabilized",NA,508,"Y","Unknown",37.384735,-121.894386,"Same Store","Northern CA","Charla Neta",NA,NA,"Same Store","Y","NA","NA","1989",">30 <40 Years","Santa Clara","Willow Lake","147",0,"Willow Lake (147)","Northern California Charla Neta Willow Lake (147)","400+"
"81",65,"148","Trabuco Villas","Unknown","Essex","Y","Y","Residential",92630,"Southern California","Orange","South Orange","Lake Forest","Stabilized",NA,132,"Y","Unknown",33.652931,-117.686638,"Same Store","OC/San Diego","Kevin Forsyth",NA,NA,"Same Store","Y","NA","NA","1985",">30 <40 Years","Orange","Trabuco Villas","148",0,"Trabuco Villas (148)","Southern California Kevin Forsyth Trabuco Villas (148)","<200"
"82",101,"149","Tierra Vista","Unknown","Essex","Y","Y","Residential",93030,"Southern California","Ventura","Ventura","Oxnard","Stabilized",NA,404,"Y","Unknown",34.215462,-119.147461,"Same Store","LA/Ventura","Bridgit Susim",NA,NA,"Same Store","Y","NA","NA","2001",">15 <20 Years","Ventura","Tierra Vista","149",0,"Tierra Vista (149)","Southern California Bridgit Susim Tierra Vista (149)","400+"
"83",72,"150","Monterey Villas","Unknown","Essex","Y","Y","Residential",93035,"Southern California","Ventura","Ventura","Oxnard","Stabilized",NA,122,"Y","Unknown",34.191109,-119.209595,"Same Store","LA/Ventura","Elizabeth Rodriguez",NA,NA,"Same Store","Y","NA","NA","1974","40+ Years","Ventura","Monterey Villas","150",0,"Monterey Villas (150)","Southern California Elizabeth Rodriguez Monterey Villas (150)","<200"
"84",107,"151","Vista Belvedere","Unknown","Essex","Y","Y","Residential",94920,"Northern California","Marin","Marin","Tiburon","Stabilized",NA,76,"Y","Unknown",37.879963,-122.461761,"Same Store","Northern CA","Erica Rangel",NA,NA,"Same Store","Y","NA","NA","1963","40+ Years","San Francisco","Vista Belvedere","151",0,"Vista Belvedere (151)","Northern California Erica Rangel Vista Belvedere (151)","<200"
"85",75,"158","Lofts at Pinehurst, The","Unknown","Essex","Y","Y","Residential",93004,"Southern California","Ventura","Ventura","Ventura","Stabilized",NA,118,"Y","Unknown",34.279243,-119.162048,"Same Store","LA/Ventura","Maggie Angulo",NA,NA,"Same Store","Y","NA","NA","1971","40+ Years","Ventura","Lofts at Pinehurst, The","158",0,"Lofts at Pinehurst, The (158)","Southern California Maggie Angulo Lofts at Pinehurst, The (158)","<200"
"86",102,"161","Pointe at Cupertino, The","Unknown","Essex","Y","Y","Residential",95014,"Northern California","Santa Clara","San Jose MSA","Cupertino","Stabilized",NA,116,"Y","Unknown",37.333157,-122.022842,"Same Store","Northern CA","Ali Ghatala",NA,NA,"Same Store","Y","NA","NA","1963","40+ Years","Santa Clara","Pointe at Cupertino, The","161",0,"Pointe at Cupertino, The (161)","Northern California Ali Ghatala Pointe at Cupertino, The (161)","<200"
"87",2454,"162","Delano","Unknown","Essex","Y","Y","Residential",98052,"Seattle Metro","King","Eastside","Redmond","Stabilized",NA,126,"Y","Unknown",47.673153,-122.113297,"Same Store","Washington","Suzanne Bachler",NA,NA,"Same Store","Y","NA","NA","2005",">15 <20 Years","King","Delano","162",0,"Delano (162)","Seattle Metro Suzanne Bachler Delano (162)","<200"
"88",30,"163","Woodland Commons","Unknown","Essex","Y","Y","Residential",98005,"Seattle Metro","King","Eastside","Bellevue","Stabilized",NA,302,"Y","Unknown",47.6198468,-122.1595792,"Same Store","Washington","Suzanne Bachler",NA,NA,"Same Store","Y","NA","NA","1978","40+ Years","King","Woodland Commons","163",0,"Woodland Commons (163)","Seattle Metro Suzanne Bachler Woodland Commons (163)",">300 Units"
"89",77,"164","Wandering Creek Apartments","Unknown","Essex","Y","Y","Residential",98031,"Seattle Metro","King","South","Kent","Stabilized",NA,156,"Y","Unknown",47.386955,-122.168396,"Same Store","Washington","Sherrie Clevenger",NA,NA,"Same Store","Y","NA","NA","1986",">30 <40 Years","King","Wandering Creek Apartments","164",0,"Wandering Creek Apartments (164)","Seattle Metro Sherrie Clevenger Wandering Creek Apartments (164)","<200"
"90",83,"166","Waterford Place, The","Unknown","Essex","Y","Y","Residential",95112,"Northern California","Santa Clara","San Jose MSA","San Jose","Stabilized",NA,238,"Y","Unknown",37.366268,-121.910698,"Same Store","Northern CA","James Zhou",NA,NA,"Same Store","Y","NA","NA","2000",">20 <30 Years","Santa Clara","Waterford Place, The","166",0,"Waterford Place, The (166)","Northern California James Zhou Waterford Place, The (166)",">200 Units"
"91",93,"167","Walnut Heights","Unknown","Essex","Y","Y","Residential",91789,"Southern California","Los Angeles","Other SoCal","Walnut","Stabilized",NA,163,"Y","Unknown",34.044193,-117.850136,"Same Store","LA/Ventura","Mark Yepez",NA,NA,"Same Store","Y","NA","NA","1964","40+ Years","Los Angeles","Walnut Heights","167",0,"Walnut Heights (167)","Southern California Mark Yepez Walnut Heights (167)","<200"
"92",79,"168","Wharfside Pointe","Unknown","Essex","Y","Y","Residential",98119,"Seattle Metro","King","Seattle CBD","Seattle","Stabilized",NA,155,"Y","Unknown",47.654213,-122.374969,"Same Store","Washington","Jillian LeMay",NA,NA,"Same Store","Y","NA","NA","1990",">30 <40 Years","King","Wharfside Pointe","168",0,"Wharfside Pointe (168)","Seattle Metro Jillian LeMay Wharfside Pointe (168)","<200"
"93",78,"169","Wilshire Promenade","Unknown","Essex","Y","Y","Residential",92832,"Southern California","Orange","North Orange","Fullerton","Stabilized",NA,149,"Y","Unknown",33.872631,-117.926918,"Same Store","OC/San Diego","Brent Christianson",NA,NA,"Same Store","Y","NA","NA","1992",">20 <30 Years","Orange","Wilshire Promenade","169",0,"Wilshire Promenade (169)","Southern California Brent Christianson Wilshire Promenade (169)","<200"
"94",80,"170","Windsor Ridge","Unknown","Essex","Y","Y","Residential",94086,"Northern California","Santa Clara","San Jose MSA","Sunnyvale","Stabilized",NA,216,"Y","Unknown",37.372162,-122.014824,"Same Store","Northern CA","Amir Sheikh",NA,NA,"Same Store","Y","NA","NA","1989",">30 <40 Years","Santa Clara","Windsor Ridge","170",0,"Windsor Ridge (170)","Northern California Amir Sheikh Windsor Ridge (170)",">200 Units"
"95",81,"171","Hallie, The","Unknown","Essex","Y","Y","Residential",91101,"Southern California","Los Angeles","Tri-Cities LA","Pasadena","Stabilized",NA,292,"Y","Unknown",34.140972,-118.142418,"Same Store","LA/Ventura","Crystal Rodgers",NA,NA,"Same Store","Y","NA","NA","1972","40+ Years","Los Angeles","Hallie, The","171",0,"Hallie, The (171)","Southern California Crystal Rodgers Hallie, The (171)",">200 Units"
"96",82,"172","City View","Unknown","Essex","Y","Y","Residential",94542,"Northern California","Alameda","Fremont","Hayward","Stabilized",NA,572,"Y","Unknown",37.660133,-122.066704,"Same Store","Northern CA","Alicia Carman",NA,NA,"Same Store","Y","NA","NA","1975","40+ Years","Alameda","City View","172",0,"City View (172)","Northern California Alicia Carman City View (172)","400+"
"97",211,"178","The Grand","Unknown","Essex","Y","Y","Residential",94612,"Northern California","Alameda","Oakland CBD","Oakland","Stabilized",NA,243,"Y","Unknown",37.81142,-122.265205,"Same Store","Northern CA","Bailey Brown",NA,NA,"Same Store","Y","NA","NA","2009",">10 <15 Years","Alameda","The Grand","178",0,"The Grand (178)","Northern California Bailey Brown The Grand (178)",">200 Units"
"98",307,"180","Fourth & U","Unknown","Essex","Y","Y","Residential",94710,"Northern California","Alameda","Oakland CBD","Berkeley","Stabilized",NA,171,"Y","Unknown",37.867081,-122.299797,"Same Store","Northern CA","Bailey Brown",NA,NA,"Same Store","Y","NA","NA","2010",">10 <15 Years","Alameda","Fourth & U","180",0,"Fourth & U (180)","Northern California Bailey Brown Fourth & U (180)","<200"
"99",483,"186","Via","Unknown","Essex","Y","Y","Residential",94089,"Northern California","Santa Clara","San Jose MSA","Sunnyvale","Stabilized",NA,284,"Y","Unknown",37.402534,-122.007736,"Same Store","Northern CA","Amir Sheikh",NA,NA,"Same Store","Y","NA","NA","2011",">5 <10 Years","Santa Clara","Via","186",0,"Via (186)","Northern California Amir Sheikh Via (186)",">200 Units"
"100",219,"187","Belmont Station","Unknown","Essex","Y","Y","Residential",90026,"Southern California","Los Angeles","Los Angeles CBD","Los Angeles","Stabilized",NA,275,"Y","Unknown",34.060818,-118.259369,"Same Store","LA/Ventura","Richard Resos",NA,NA,"Same Store","Y","NA","NA","2009",">10 <15 Years","Los Angeles","Belmont Station","187",0,"Belmont Station (187)","Southern California Richard Resos Belmont Station (187)",">200 Units"
"101",316,"194","Expo","Unknown","Essex","Y","Y","Residential",98109,"Seattle Metro","King","Seattle CBD","Seattle","Stabilized",NA,275,"N","Unknown",47.62331,-122.355103,"Other","Washington","Melissa Downs",NA,NA,"Other","Y","NA","NA","2012",">5 <10 Years","King","Expo","194",0,"Expo (194)","Seattle Metro Melissa Downs Expo (194)",">200 Units"
"102",3174,"197","Avery","Unknown","Essex","Y","Y","Residential",91607,"Southern California","Los Angeles","Tri-Cities LA","Valley Village","Stabilized",NA,121,"Y","Unknown",34.1708231,-118.3962605,"Same Store","LA/Ventura","Crystal Rodgers",NA,NA,"Same Store","Y","NA","NA","2014",">5 <10 Years","Los Angeles","Avery","197",0,"Avery (197)","Southern California Crystal Rodgers Avery (197)","<200"
"103",5623,"198","Century Towers","Unknown","Essex","Y","Y","Residential",95112,"Northern California","Santa Clara","San Jose MSA","San Jose","Stabilized",NA,376,"N","Unknown",37.3680032,-121.9166787,"Other","Northern CA","Ben Egge",NA,NA,"Other","Y","NA","NA","2016","<5 Years","Santa Clara","Century Towers","198",0,"Century Towers (198)","Northern California Ben Egge Century Towers (198)",">300 Units"
"104",1320,"210","Allegro","Unknown","Essex","Y","Y","Residential",91607,"Southern California","Los Angeles","Tri-Cities LA","Valley Village","Stabilized",NA,97,"Y","Unknown",34.164909,-118.393097,"Same Store","LA/Ventura","Crystal Rodgers",NA,NA,"Same Store","Y","NA","NA","2010",">10 <15 Years","Los Angeles","Allegro","210",0,"Allegro (210)","Southern California Crystal Rodgers Allegro (210)","<200"
"105",1229,"211","Muse","Unknown","Essex","Y","Y","Residential",91601,"Southern California","Los Angeles","Tri-Cities LA","North Hollywood","Stabilized",NA,152,"Y","Unknown",34.166473,-118.370804,"Same Store","LA/Ventura","Crystal Rodgers",NA,NA,"Same Store","Y","NA","NA","2011",">5 <10 Years","Los Angeles","Muse","211",0,"Muse (211)","Southern California Crystal Rodgers Muse (211)","<200"
"106",350,"215","Patent 523","Unknown","Essex","Y","Y","Residential",98102,"Seattle Metro","King","Seattle CBD","Seattle","Stabilized",NA,295,"Y","Unknown",47.623695,-122.321487,"Same Store","Washington","Melissa Downs",NA,NA,"Same Store","Y","NA","NA","2010",">10 <15 Years","King","Patent 523","215",0,"Patent 523 (215)","Seattle Metro Melissa Downs Patent 523 (215)",">200 Units"
"107",9,"218","The Elliot at Mukilteo","Unknown","Essex","Y","Y","Residential",98275,"Seattle Metro","Snohomish","Snohomish","Mukilteo","Stabilized",NA,301,"Y","Unknown",47.911911,-122.300407,"Same Store","Washington","Carol Swanson",NA,NA,"Same Store","Y","NA","NA","1981",">30 <40 Years","Snohomish","The Elliot at Mukilteo","218",0,"The Elliot at Mukilteo (218)","Seattle Metro Carol Swanson The Elliot at Mukilteo (218)",">300 Units"
"108",13,"219","Barkley Apartments, The","Unknown","Essex","Y","Y","Residential",92806,"Southern California","Orange","North Orange","Anaheim","Stabilized",NA,161,"Y","Unknown",33.839031,-117.88372,"Same Store","OC/San Diego","Brent Christianson",NA,NA,"Same Store","Y","NA","NA","1984",">30 <40 Years","Orange","Barkley Apartments, The","219",0,"Barkley Apartments, The (219)","Southern California Brent Christianson Barkley Apartments, The (219)","<200"
"109",15,"220","Brookside Oaks","Unknown","Essex","Y","Y","Residential",94087,"Northern California","Santa Clara","San Jose MSA","Sunnyvale","Stabilized",NA,170,"Y","Unknown",37.339382,-122.060898,"Same Store","Northern CA","Davina Slusher",NA,NA,"Same Store","Y","NA","NA","1973","40+ Years","Santa Clara","Brookside Oaks","220",0,"Brookside Oaks (220)","Northern California Davina Slusher Brookside Oaks (220)","<200"
"110",681,"223","Axis 2300","Unknown","Essex","Y","Y","Residential",92612,"Southern California","Orange","South Orange","Irvine","Stabilized",NA,115,"Y","Unknown",33.673862,-117.858223,"Same Store","OC/San Diego","Cynthia Cifuentes",NA,NA,"Same Store","Y","NA","NA","2010",">10 <15 Years","Orange","Axis 2300","223",0,"Axis 2300 (223)","Southern California Cynthia Cifuentes Axis 2300 (223)","<200"
"111",8345,"224","Sage at Cupertino","Unknown","Essex","Y","Y","Residential",95014,"Northern California","Santa Clara","San Jose MSA","Cupertino","Stabilized",NA,230,"Y","Unknown",37.321491,-122.000106,"Same Store","Northern CA","Davina Slusher",NA,NA,"Same Store","Y","NA","NA","1971","40+ Years","Santa Clara","Sage at Cupertino","224",0,"Sage at Cupertino (224)","Northern California Davina Slusher Sage at Cupertino (224)",">200 Units"
"112",57,"225","Capri at Sunny Hills","Unknown","Essex","Y","Y","Residential",92833,"Southern California","Orange","North Orange","Fullerton","Stabilized",NA,102,"Y","Unknown",33.886478,-117.966141,"Same Store","OC/San Diego","Mark Yepez",NA,NA,"Same Store","Y","NA","NA","1961","40+ Years","Orange","Capri at Sunny Hills","225",0,"Capri at Sunny Hills (225)","Southern California Mark Yepez Capri at Sunny Hills (225)","<200"
"113",115,"226","Esplanade San Jose","Unknown","Essex","Y","Y","Residential",95112,"Northern California","Santa Clara","San Jose MSA","San Jose","Stabilized",NA,278,"Y","Unknown",37.351948,-121.891632,"Same Store","Northern CA","Amir Sheikh",NA,NA,"Same Store","Y","NA","NA","2002",">15 <20 Years","Santa Clara","Esplanade San Jose","226",0,"Esplanade San Jose (226)","Northern California Amir Sheikh Esplanade San Jose (226)",">200 Units"
"114",112,"229","Fairwood Pond","Unknown","Essex","Y","Y","Residential",98058,"Seattle Metro","King","South","Renton","Stabilized",NA,194,"Y","Unknown",47.444118,-122.145134,"Same Store","Washington","Sherrie Clevenger",NA,NA,"Same Store","Y","NA","NA","1997",">20 <30 Years","King","Fairwood Pond","229",0,"Fairwood Pond (229)","Seattle Metro Sherrie Clevenger Fairwood Pond (229)","<200"
"115",50,"232","Montejo Apartments","Unknown","Essex","Y","Y","Residential",92841,"Southern California","Orange","North Orange","Garden Grove","Stabilized",NA,124,"Y","Unknown",33.775017,-117.98407,"Same Store","OC/San Diego","Brent Christianson",NA,NA,"Same Store","Y","NA","NA","1974","40+ Years","Orange","Montejo Apartments","232",0,"Montejo Apartments (232)","Southern California Brent Christianson Montejo Apartments (232)","<200"
"116",66,"239","Fairhaven Apartments","Unknown","Essex","Y","Y","Residential",92705,"Southern California","Orange","North Orange","Santa Ana","Stabilized",NA,164,"Y","Unknown",33.77177,-117.85247,"Same Store","OC/San Diego","Kevin Forsyth",NA,NA,"Same Store","Y","NA","NA","1970","40+ Years","Orange","Fairhaven Apartments","239",0,"Fairhaven Apartments (239)","Southern California Kevin Forsyth Fairhaven Apartments (239)","<200"
"117",8,"241","Villa Angelina Apartments","Unknown","Essex","Y","Y","Residential",92870,"Southern California","Orange","North Orange","Placentia","Stabilized",NA,256,"Y","Unknown",33.872532,-117.867172,"Same Store","OC/San Diego","Mark Yepez",NA,NA,"Same Store","Y","NA","NA","1970","40+ Years","Orange","Villa Angelina Apartments","241",0,"Villa Angelina Apartments (241)","Southern California Mark Yepez Villa Angelina Apartments (241)",">200 Units"
"118",74,"242","Valley Park Apartments","Unknown","Essex","Y","Y","Residential",92708,"Southern California","Orange","North Orange","Fountain Valley","Stabilized",NA,160,"Y","Unknown",33.711857,-117.935883,"Same Store","OC/San Diego","Cynthia Cifuentes",NA,NA,"Same Store","Y","NA","NA","1969","40+ Years","Orange","Valley Park Apartments","242",0,"Valley Park Apartments (242)","Southern California Cynthia Cifuentes Valley Park Apartments (242)","<200"
"119",118,"244","Woodside Village Apartments","Unknown","Essex","Y","Y","Residential",93004,"Southern California","Ventura","Ventura","Ventura","Stabilized",NA,145,"Y","Unknown",34.278934,-119.17115,"Same Store","LA/Ventura","Maggie Angulo",NA,NA,"Same Store","Y","NA","NA","1987",">30 <40 Years","Ventura","Woodside Village Apartments","244",0,"Woodside Village Apartments (244)","Southern California Maggie Angulo Woodside Village Apartments (244)","<200"
"120",3577,"245","Bennett Lofts","Unknown","Essex","Y","Y","Residential",94107,"Northern California","San Francisco","San Francisco","San Francisco","Stabilized",NA,165,"Y","Unknown",37.777786,-122.397308,"Non Same Store","Northern CA","Erica Rangel",NA,NA,"Non Same Store","Y","NA","NA","2004",">15 <20 Years","San Francisco","Bennett Lofts","245",0,"Bennett Lofts (245)","Northern California Erica Rangel Bennett Lofts (245)","<200"
"121",3586,"246","Annaliese","Unknown","Essex","Y","Y","Residential",98109,"Seattle Metro","King","Seattle CBD","Seattle","Stabilized",NA,56,"Y","Unknown",47.618851,-122.344955,"Same Store","Washington","Jillian LeMay",NA,NA,"Same Store","Y","NA","NA","2009",">10 <15 Years","King","Annaliese","246",0,"Annaliese (246)","Seattle Metro Jillian LeMay Annaliese (246)","<200"
"122",3825,"247","Fox Plaza Apartments","Unknown","Essex","Y","Y","Residential",94102,"Northern California","San Francisco","San Francisco","San Francisco","Stabilized",NA,445,"Y","Unknown",37.77721,-122.417358,"Same Store","Northern CA","Erica Rangel",NA,NA,"Same Store","Y","NA","NA","1968","40+ Years","San Francisco","Fox Plaza Apartments","247",0,"Fox Plaza Apartments (247)","Northern California Erica Rangel Fox Plaza Apartments (247)","400+"
"123",9994,"260","777 Hamilton","Unknown","Essex","Y","Y","Residential",94025,"Northern California","San Mateo","San Mateo","Menlo Park","Stabilized",NA,195,"N","Unknown",37.47979,-122.154427,"BEX IV","Northern CA","Davina Slusher",NA,NA,"BEX IV","Y","NA","NA","2017","<5 Years","San Mateo","777 Hamilton","260",0,"777 Hamilton (260)","Northern California Davina Slusher 777 Hamilton (260)","<200"
"124",181,"292","Camino Ruiz Apartments","Unknown","Essex","Y","Y","Residential",93012,"Southern California","Ventura","Ventura","Camarillo","Stabilized",NA,159,"Y","Unknown",34.215988,-119.002625,"Same Store","LA/Ventura","Maggie Angulo",NA,NA,"Same Store","Y","NA","NA","1990",">30 <40 Years","Ventura","Camino Ruiz Apartments","292",0,"Camino Ruiz Apartments (292)","Southern California Maggie Angulo Camino Ruiz Apartments (292)","<200"
"125",3385,"299","Domaine","Unknown","Essex","Y","Y","Residential",98109,"Seattle Metro","King","Seattle CBD","Seattle","Stabilized",NA,92,"Y","Unknown",47.642048,-122.346558,"Same Store","Washington","Jillian LeMay",NA,NA,"Same Store","Y","NA","NA","2009",">10 <15 Years","King","Domaine","299",0,"Domaine (299)","Seattle Metro Jillian LeMay Domaine (299)","<200"
"126",285,"302","Canyon Oaks","Unknown","Essex","Y","Y","Residential",94582,"Northern California","Contra Costa","San Ramon","San Ramon","Stabilized",NA,250,"Y","Unknown",37.764824,-121.905731,"Same Store","Northern CA","Abigail Dizon",NA,NA,"Same Store","Y","NA","NA","2005",">15 <20 Years","Contra Costa","Canyon Oaks","302",0,"Canyon Oaks (302)","Northern California Abigail Dizon Canyon Oaks (302)",">200 Units"
"127",352,"303","Hope Ranch","Unknown","Essex","Y","Y","Residential",93110,"Southern California","Santa Barbara","Other SoCal","Santa Barbara","Stabilized",NA,108,"Y","Unknown",34.441349,-119.754906,"Non Same Store","LA/Ventura","Bridgit Susim",NA,NA,"Non Same Store","Y","NA","NA","1965","40+ Years","Other Southern California","Hope Ranch","303",0,"Hope Ranch (303)","Southern California Bridgit Susim Hope Ranch (303)","<200"
"128",366,"313","Hillsdale Garden Apartments","Unknown","Essex","Y","Y","Residential",94403,"Northern California","San Mateo","San Mateo","San Mateo","Stabilized",NA,697,"Y","Unknown",37.53429,-122.299347,"Same Store","Northern CA","Nicole Conrad",NA,NA,"Same Store","Y","NA","NA","1948","40+ Years","San Mateo","Hillsdale Garden Apartments","313",0,"Hillsdale Garden Apartments (313)","Northern California Nicole Conrad Hillsdale Garden Apartments (313)","400+"
"129",414,"333","Magnolia Square","Unknown","Essex","Y","Y","Residential",94086,"Northern California","Santa Clara","San Jose MSA","Sunnyvale","Stabilized",NA,188,"Y","Unknown",37.382332,-122.044998,"Same Store","Northern CA","Amir Sheikh",NA,NA,"Same Store","Y","NA","NA","1969","40+ Years","Santa Clara","Magnolia Square","327 & 333",0,"Magnolia Square (327 & 333)","Northern California Amir Sheikh Magnolia Square (327 & 333)","<200"
"130",390,"329","The Cairns","Unknown","Essex","Y","Y","Residential",98109,"Seattle Metro","King","Seattle CBD","Seattle","Stabilized",NA,99,"Y","Unknown",47.622463,-122.33007,"Same Store","Washington","Melissa Downs",NA,NA,"Same Store","Y","NA","NA","2006",">10 <15 Years","King","The Cairns","329",0,"The Cairns (329)","Seattle Metro Melissa Downs The Cairns (329)","<200"
"131",400,"332","Mill Creek","Unknown","Essex","Y","Y","Residential",94582,"Northern California","Contra Costa","San Ramon","San Ramon","Stabilized",NA,400,"Y","Unknown",37.757168,-121.90799,"Same Store","Northern CA","Abigail Dizon",NA,NA,"Same Store","Y","NA","NA","2005",">15 <20 Years","Contra Costa","Mill Creek","332",0,"Mill Creek (332)","Northern California Abigail Dizon Mill Creek (332)","400+"
"132",3392,"336","Ascent","Unknown","Essex","Y","Y","Residential",98034,"Seattle Metro","King","Eastside","Kirkland","Stabilized",NA,90,"Y","Unknown",47.708881,-122.169746,"Same Store","Washington","Carol Swanson",NA,NA,"Same Store","Y","NA","NA","1988",">30 <40 Years","King","Ascent","336",0,"Ascent (336)","Seattle Metro Carol Swanson Ascent (336)","<200"
"133",4411,"338","Slater 116","Unknown","Essex","Y","Y","Residential",98033,"Seattle Metro","King","Eastside","Kirkland","Stabilized",NA,108,"Y","Unknown",47.70303,-122.175797,"Same Store","Washington","Carol Swanson",NA,NA,"Same Store","Y","NA","NA","2013",">5 <10 Years","King","Slater 116","338",0,"Slater 116 (338)","Seattle Metro Carol Swanson Slater 116 (338)","<200"
"134",4065,"345","One South Market","Unknown","Essex","Y","Y","Residential",95113,"Northern California","Santa Clara","San Jose MSA","San Jose","Stabilized",NA,312,"Y","Unknown",37.335129,-121.892263,"Non Same Store","Northern CA","Ben Egge",NA,NA,"Non Same Store","Y","NA","NA","#UNKN","","Santa Clara","One South Market","345",0,"One South Market (345)","Northern California Ben Egge One South Market (345)",">300 Units"
"135",1787,"351","Arbors Parc Rose","Unknown","Essex","Y","Y","Residential",93030,"Southern California","Ventura","Ventura","Oxnard","Stabilized",NA,373,"N","Unknown",34.215542,-119.152206,"Wesco I","LA/Ventura","Bridgit Susim",NA,NA,"Wesco I","Y","NA","NA","2001",">15 <20 Years","Ventura","Arbors Parc Rose","351",0,"Arbors Parc Rose (351)","Southern California Bridgit Susim Arbors Parc Rose (351)",">300 Units"
"136",1942,"352","Reveal","Unknown","Essex","Y","Y","Residential",91303,"Southern California","Los Angeles","Woodland Hills","Woodland Hills","Stabilized",NA,438,"Y","Unknown",34.191925,-118.594139,"Same Store","LA/Ventura","Elizabeth Rodriguez",NA,NA,"Same Store","Y","NA","NA","2010",">10 <15 Years","Los Angeles","Reveal","352",0,"Reveal (352)","Southern California Elizabeth Rodriguez Reveal (352)","400+"
"137",2162,"353","Vesta","Unknown","Essex","Y","Y","Residential",98052,"Seattle Metro","King","Eastside","Redmond","Stabilized",NA,440,"N","Unknown",47.65833,-122.0888847,"Wesco I","Washington","Suzanne Bachler",NA,NA,"Wesco I","Y","NA","NA","1998",">20 <30 Years","King","Vesta","353",0,"Vesta (353)","Seattle Metro Suzanne Bachler Vesta (353)","400+"
"138",2163,"354","Redmond Hill","Unknown","Essex","Y","Y","Residential",98052,"Seattle Metro","King","Eastside","Redmond","Stabilized",NA,442,"N","Unknown",47.659809,-122.092041,"Wesco I","Washington","Suzanne Bachler",NA,NA,"Wesco I","Y","NA","NA","1985",">30 <40 Years","King","Redmond Hill","354",0,"Redmond Hill (354)","Seattle Metro Suzanne Bachler Redmond Hill (354)","400+"
"139",2403,"355","Briarwood","Unknown","Essex","Y","Y","Residential",94538,"Northern California","Alameda","Fremont","Fremont","Stabilized",NA,160,"N","Unknown",37.532967,-121.965195,"Wesco I","Northern CA","Carrie Hughes",NA,NA,"Wesco I","Y","NA","NA","1978","40+ Years","Alameda","Briarwood","355",0,"Briarwood (355)","Northern California Carrie Hughes Briarwood (355)","<200"
"140",2404,"356","The Woods","Unknown","Essex","Y","Y","Residential",94538,"Northern California","Alameda","Fremont","Fremont","Stabilized",NA,160,"N","Unknown",37.53896,-121.961212,"Wesco I","Northern CA","Carrie Hughes",NA,NA,"Wesco I","Y","NA","NA","1978","40+ Years","Alameda","The Woods","356",0,"The Woods (356)","Northern California Carrie Hughes The Woods (356)","<200"
"141",3108,"357","Riley Square","Unknown","Essex","Y","Y","Residential",95051,"Northern California","Santa Clara","San Jose MSA","Santa Clara","Stabilized",NA,156,"N","Unknown",37.360153,-121.998314,"Wesco I","Northern CA","Davina Slusher",NA,NA,"Wesco I","Y","NA","NA","1972","40+ Years","Santa Clara","Riley Square","357",0,"Riley Square (357)","Northern California Davina Slusher Riley Square (357)","<200"
"142",3589,"359","Pacific Electric Lofts","Unknown","Essex","Y","Y","Residential",90014,"Southern California","Los Angeles","Los Angeles CBD","Los Angeles","Stabilized",NA,314,"N","Unknown",34.044949,-118.250168,"Wesco I","LA/Ventura","Richard Resos",NA,NA,"Wesco I","Y","NA","NA","2006",">10 <15 Years","Los Angeles","Pacific Electric Lofts","359",0,"Pacific Electric Lofts (359)","Southern California Richard Resos Pacific Electric Lofts (359)",">300 Units"
"143",5477,"362","Emme, The","Unknown","Essex","Y","Y","Residential",94608,"Northern California","Alameda","Oakland CBD","Emeryville","Stabilized",NA,190,"Y","Unknown",37.843329,-122.295541,"Non Same Store","Northern CA","Bailey Brown",NA,NA,"Non Same Store","Y","NA","NA","#UNKN","","Alameda","Emme, The","362",0,"Emme, The (362)","Northern California Bailey Brown Emme, The (362)","<200"
"144",2245,"368","Connolly Station","Unknown","Essex","Y","Y","Residential",94568,"Northern California","Alameda","San Ramon","Dublin","Stabilized",NA,309,"Y","Unknown",37.701958,-121.929086,"Non Same Store","Northern CA","Vanessa Liclican",NA,NA,"Non Same Store","Y","NA","NA","2013",">5 <10 Years","Alameda","Connolly Station","368",0,"Connolly Station (368)","Northern California Vanessa Liclican Connolly Station (368)",">300 Units"
"145",2659,"371","Park 20","Unknown","Essex","Y","Y","Residential",94403,"Northern California","San Mateo","San Mateo","San Mateo ","Stabilized",NA,197,"Y","Unknown",37.548573,-122.313414,"Non Same Store","Northern CA","Erica Rangel",NA,NA,"Non Same Store","Y","NA","NA","#UNKN","","San Mateo","Park 20","371",0,"Park 20 (371)","Northern California Erica Rangel Park 20 (371)","<200"
"146",2247,"380","The Huxley","Unknown","Essex","Y","Y","Residential",90038,"Southern California","Los Angeles","West LA","West Hollywood","Stabilized",NA,187,"Y","Unknown",34.09325,-118.34348,"Same Store","LA/Ventura","Selena Kerr",NA,NA,"Same Store","Y","NA","NA","2014",">5 <10 Years","Los Angeles","The Huxley","380",0,"The Huxley (380)","Southern California Selena Kerr The Huxley (380)","<200"
"147",2555,"381","The Dylan","Unknown","Essex","Y","Y","Residential",90046,"Southern California","Los Angeles","West LA","West Hollywood","Stabilized",NA,184,"Y","Unknown",34.090691,-118.344101,"Same Store","LA/Ventura","Selena Kerr",NA,NA,"Same Store","Y","NA","NA","2014",">5 <10 Years","Los Angeles","The Dylan","381",0,"The Dylan (381)","Southern California Selena Kerr The Dylan (381)","<200"
"148",3948,"382","Agora at South Main","Unknown","Essex","Y","Y","Residential",94549,"Northern California","Contra Costa","San Ramon","Walnut Creek","Stabilized",NA,49,"Y","Unknown",37.893244,-122.058838,"Non Same Store","Northern CA","Alicia Carman",NA,NA,"Non Same Store","Y","NA","NA","2016","<5 Years","Contra Costa","Agora at South Main","382",0,"Agora at South Main (382)","Northern California Alicia Carman Agora at South Main (382)","<200"
"149",3611,"386","Haver Hill","Unknown","Essex","Y","Y","Residential",92831,"Southern California","Orange","North Orange","Fullerton","Stabilized",NA,264,"N","Unknown",33.889053,-117.87133,"Wesco III","OC/San Diego","Mark Yepez",NA,NA,"Wesco III","Y","NA","NA","1973","40+ Years","Orange","Haver Hill","386",0,"Haver Hill (386)","Southern California Mark Yepez Haver Hill (386)",">200 Units"
"150",4108,"387","Regency at Mountain View","Unknown","Essex","Y","Y","Residential",94040,"Northern California","Santa Clara","San Jose MSA","Mountain View","Stabilized",NA,142,"N","Unknown",37.397461,-122.092598,"Wesco III","Northern CA","Davina Slusher",NA,NA,"Wesco III","Y","NA","NA","1970","40+ Years","Santa Clara","Regency at Mountain View","387",0,"Regency at Mountain View (387)","Northern California Davina Slusher Regency at Mountain View (387)","<200"
"151",4227,"388","Gas Co Lofts","Unknown","Essex","Y","Y","Residential",90017,"Southern California","Los Angeles","Los Angeles CBD","Los Angeles","Stabilized",NA,251,"N","Unknown",34.046864,-118.260391,"Wesco III","LA/Ventura","Richard Resos",NA,NA,"Wesco III","Y","NA","NA","2004",">15 <20 Years","Los Angeles","Gas Co Lofts","388",0,"Gas Co Lofts (388)","Southern California Richard Resos Gas Co Lofts (388)",">200 Units"
"152",9722,"390","Mylo Santa Clara","Unknown","Essex","Y","Y","Residential",95051,"Northern California","Santa Clara","San Jose MSA","Santa Clara","Non Stabilized",NA,476,"Y","Unknown",37.352097,-121.997925,"Non Same Store","Northern CA","Amir Sheikh",NA,NA,"Non Same Store","Y","NA","NA","#UNKN","","Santa Clara","Mylo Santa Clara","390",0,"Mylo Santa Clara (390)","Northern California Amir Sheikh Mylo Santa Clara (390)","400+"
"153",9995,"393","Township","Unknown","Essex","Y","Y","Residential",94063,"Northern California","San Mateo","San Mateo","Redwood City","Stabilized",NA,132,"Y","Unknown",37.4917874,-122.2274892,"Non Same Store","Northern CA","Davina Slusher",NA,NA,"Non Same Store","Y","NA","NA","2014",">5 <10 Years","San Mateo","Township","393",0,"Township (393)","Northern California Davina Slusher Township (393)","<200"
"154",4560,"400","Vox","Unknown","Essex","Y","Y","Residential",98122,"Seattle Metro","King","Seattle CBD","Seattle","Stabilized",NA,58,"Y","Unknown",47.614491,-122.312798,"Same Store","Washington","Melissa Downs",NA,NA,"Same Store","Y","NA","NA","2013",">5 <10 Years","King","Vox","400",0,"Vox (400)","Seattle Metro Melissa Downs Vox (400)","<200"
"155",5329,"403","Collins on Pine","Unknown","Essex","Y","Y","Residential",98122,"Seattle Metro","King","Seattle CBD","Seattle","Stabilized",NA,76,"Y","Unknown",47.615398,-122.315697,"Same Store","Washington","Melissa Downs",NA,NA,"Same Store","Y","NA","NA","#UNKN","","King","Collins on Pine","403",0,"Collins on Pine (403)","Seattle Metro Melissa Downs Collins on Pine (403)","<200"
"156",5554,"405","Paragon","Unknown","Essex","Y","Y","Residential",94538,"Northern California","Alameda","Fremont","Fremont","Stabilized",NA,301,"Y","Unknown",37.548519,-121.981697,"Same Store","Northern CA","Carrie Hughes",NA,NA,"Same Store","Y","NA","NA","2013",">5 <10 Years","Alameda","Paragon","405",0,"Paragon (405)","Northern California Carrie Hughes Paragon (405)",">300 Units"
"157",5555,"406","Ellington at Bellevue","Unknown","Essex","Y","Y","Residential",98004,"Seattle Metro","King","Eastside","Bellevue","Stabilized",NA,220,"Y","Unknown",47.620529,-122.19175,"Same Store","Washington","Melissa Downs",NA,NA,"Same Store","Y","NA","NA","1994",">20 <30 Years","King","Ellington at Bellevue","406",0,"Ellington at Bellevue (406)","Seattle Metro Melissa Downs Ellington at Bellevue (406)",">200 Units"
"158",5622,"407","Apex","Unknown","Essex","Y","Y","Residential",95035,"Northern California","Santa Clara","San Jose MSA","Milpitas","Stabilized",NA,366,"Y","Unknown",37.414371,-121.904602,"Same Store","Northern CA","Carrie Hughes",NA,NA,"Same Store","Y","NA","NA","2013",">5 <10 Years","Santa Clara","Apex","407",0,"Apex (407)","Northern California Carrie Hughes Apex (407)",">300 Units"
"159",6637,"415","Avant","Unknown","Essex","Y","Y","Residential",90015,"Southern California","Los Angeles","Los Angeles CBD","Los Angeles","Stabilized",NA,440,"Y","Unknown",34.039601,-118.268484,"Same Store","LA/Ventura","Richard Resos",NA,NA,"Same Store","Y","NA","NA","2014",">5 <10 Years","Los Angeles","Avant","415",0,"Avant (415)","Southern California Richard Resos Avant (415)","400+"
"160",7141,"418","Enso","Unknown","Essex","Y","Y","Residential",95134,"Northern California","Santa Clara","San Jose MSA","San Jose","Stabilized",NA,183,"Y","Unknown",37.4120173,-121.9428638,"Same Store","Northern CA","Carrie Hughes",NA,NA,"Same Store","Y","NA","NA","2014",">5 <10 Years","Santa Clara","Enso","418",0,"Enso (418)","Northern California Carrie Hughes Enso (418)","<200"
"161",7214,"419","Mio","Unknown","Essex","Y","Y","Residential",95112,"Northern California","Santa Clara","San Jose MSA","San Jose","Stabilized",NA,103,"Y","Unknown",37.351893,-121.893629,"Same Store","Northern CA","Amir Sheikh",NA,NA,"Same Store","Y","NA","NA","2015",">5 <10 Years","Santa Clara","Mio","419",0,"Mio (419)","Northern California Amir Sheikh Mio (419)","<200"
"162",7371,"420","Form 15","Unknown","Essex","Y","Y","Residential",92101,"Southern California","San Diego","Other SoCal","San Diego","Stabilized",NA,242,"Y","Unknown",32.712154,-117.150881,"Non Same Store","OC/San Diego","Jenifer Bulskov",NA,NA,"Non Same Store","Y","NA","NA","2015",">5 <10 Years","San Diego","Form 15","420",0,"Form 15 (420)","Southern California Jenifer Bulskov Form 15 (420)",">200 Units"
"163",7964,"422","Ashton Sherman Village","Unknown","Essex","Y","Y","Residential",91607,"Southern California","Los Angeles","Tri-Cities LA","Valley Village","Stabilized",NA,264,"Y","Unknown",34.1579583,-118.410802,"Same Store","LA/Ventura","Selena Kerr",NA,NA,"Same Store","Y","NA","NA","2014",">5 <10 Years","Los Angeles","Ashton Sherman Village","422",0,"Ashton Sherman Village (422)","Southern California Selena Kerr Ashton Sherman Village (422)",">200 Units"
"164",7965,"423","Emerson Valley Village","Unknown","Essex","Y","Y","Residential",91607,"Southern California","Los Angeles","Tri-Cities LA","Valley Village","Stabilized",NA,144,"Y","Unknown",34.156956,-118.394872,"Same Store","LA/Ventura","Selena Kerr",NA,NA,"Same Store","Y","NA","NA","2012",">5 <10 Years","Los Angeles","Emerson Valley Village","423",0,"Emerson Valley Village (423)","Southern California Selena Kerr Emerson Valley Village (423)","<200"
"165",10105,"424","Velo and Ray","Unknown","Essex","Y","Y","Residential",98103,"Seattle Metro","King","Seattle CBD","Seattle","Stabilized",NA,308,"N","Unknown",47.6516745,-122.3421739,"Wesco V","Washington","Jillian LeMay",NA,NA,"Wesco V","Y","NA","NA","#UNKN","","King","Velo and Ray","424",0,"Velo and Ray (424)","Seattle Metro Jillian LeMay Velo and Ray (424)",">300 Units"
"166",9965,"460","Courtyards at 65th","Unknown","Essex","Y","Y","Residential",94608,"Northern California","Alameda","Other NorCal","Emeryville","Stabilized",NA,331,"N","Unknown",37.8464072,-122.293027,"Wesco V","Northern CA","Bailey Brown",NA,NA,"Wesco V","Y","NA","NA","2004",">15 <20 Years","Alameda","Courtyards at 65th","460",0,"Courtyards at 65th (460)","Northern California Bailey Brown Courtyards at 65th (460)",">300 Units"
"167",8604,"463","360 Residences","Unknown","Essex","Y","Y","Residential",95113,"Northern California","Santa Clara","San Jose MSA","San Jose","Stabilized",NA,213,"N","Unknown",37.330255,-121.887168,"Wesco V","Northern CA","Ben Egge",NA,NA,"Wesco V","Y","NA","NA","2010",">10 <15 Years","Santa Clara","360 Residences","463",0,"360 Residences (463)","Northern California Ben Egge 360 Residences (463)",">200 Units"
"168",8606,"465","8th & Republican","Unknown","Essex","Y","Y","Residential",98109,"Seattle Metro","King","Seattle CBD","Seattle","Stabilized",NA,211,"N","Unknown",47.62274,-122.340722,"Wesco V","Washington","Melissa Downs",NA,NA,"Wesco V","Y","NA","NA","2016","<5 Years","King","8th & Republican","465",0,"8th & Republican (465)","Seattle Metro Melissa Downs 8th & Republican (465)",">200 Units"
"169",9284,"468","Meridian at Midtown","Unknown","Essex","Y","Y","Residential",95126,"Northern California","Santa Clara","San Jose MSA","San Jose","Stabilized",NA,218,"N","Unknown",37.32302829,-121.9144208,"Wesco V","Northern CA","Ali Ghatala",NA,NA,"Wesco V","Y","NA","NA","#UNKN","","Santa Clara","Meridian at Midtown","468",0,"Meridian at Midtown (468)","Northern California Ali Ghatala Meridian at Midtown (468)",">200 Units"
"170",9668,"470","Brio","Unknown","Essex","Y","Y","Residential",94596,"Northern California","Contra Costa","San Ramon","Walnut Creek","Stabilized",NA,300,"Y","Unknown",37.9081333,-122.0590768,"Non Same Store","Northern CA","Alicia Carman",NA,NA,"Non Same Store","Y","NA","NA","2015",">5 <10 Years","Contra Costa","Brio","470",0,"Brio (470)","Northern California Alicia Carman Brio (470)",">300 Units"
"171",8026,"473","Hillsborough Park Apartments","Unknown","Essex","Y","Y","Residential",90631,"Southern California","Orange","North Orange","La Habra","Stabilized",NA,235,"N","Unknown",33.912113,-117.974548,"BEX II","OC/San Diego","Mark Yepez",NA,NA,"BEX II","Y","NA","NA","1999",">20 <30 Years","Orange","Hillsborough Park Apartments","473",0,"Hillsborough Park Apartments (473)","Southern California Mark Yepez Hillsborough Park Apartments (473)",">200 Units"
"172",8027,"474","Meadowood Apartments","Unknown","Essex","Y","Y","Residential",93065,"Southern California","Ventura","Ventura","Simi Valley","Stabilized",NA,320,"N","Unknown",34.279064,-118.765144,"BEX II","LA/Ventura","Elizabeth Rodriguez",NA,NA,"BEX II","Y","NA","NA","1986",">30 <40 Years","Ventura","Meadowood Apartments","474",0,"Meadowood Apartments (474)","Southern California Elizabeth Rodriguez Meadowood Apartments (474)",">300 Units"
"173",8028,"475","Bridgeport Apt Homes","Unknown","Essex","Y","Y","Residential",94560,"Northern California","Alameda","Fremont","Newark","Stabilized",NA,184,"N","Unknown",37.533672,-122.035065,"BEX II","Northern CA","Alicia Carman",NA,NA,"BEX II","Y","NA","NA","1987",">30 <40 Years","Alameda","Bridgeport Apt Homes","475",0,"Bridgeport Apt Homes (475)","Northern California Alicia Carman Bridgeport Apt Homes (475)","<200"
"174",8029,"476","The Carlyle","Unknown","Essex","Y","Y","Residential",95148,"Northern California","Santa Clara","San Jose MSA","San Jose","Stabilized",NA,132,"N","Unknown",37.315006,-121.807144,"BEX II","Northern CA","Ali Ghatala",NA,NA,"BEX II","Y","NA","NA","2000",">20 <30 Years","Santa Clara","The Carlyle","476",0,"The Carlyle (476)","Northern California Ali Ghatala The Carlyle (476)","<200"
"175",10162,"477","Pure Redmond","Unknown","Essex","Y","Y","Residential",98052,"Seattle Metro","King","Eastside","Redmond","Stabilized",NA,105,"Y","Unknown",47.67591,-122.10341,"Non Same Store","Washington","Suzanne Bachler",NA,NA,"Non Same Store","Y","NA","NA","2016","<5 Years","King","Pure Redmond","477",0,"Pure Redmond (477)","Seattle Metro Suzanne Bachler Pure Redmond (477)","<200"
"176",8736,"479","Village at Toluca Lake, The","Unknown","Essex","Y","Y","Residential",91505,"Southern California","Los Angeles","Tri-Cities LA","Burbank","Stabilized",NA,145,"N","Unknown",34.153336,-118.348263,"BEX III","LA/Ventura","Crystal Rodgers",NA,NA,"BEX III","Y","NA","NA","1974","40+ Years","Los Angeles","Village at Toluca Lake, The","479",0,"Village at Toluca Lake, The (479)","Southern California Crystal Rodgers Village at Toluca Lake, The (479)","<200"
"177",6277,"482","Station Park Green","Unknown","Essex","Y","Y","Residential",94402,"Northern California","San Mateo","San Mateo","San Mateo","Non Stabilized",NA,492,"Y","Unknown",37.55435,-122.308551,"Non Same Store","Northern CA","Charla Neta",NA,NA,"Non Same Store","Y","NA","NA","2018","<5 Years","San Mateo","Station Park Green","482",0,"Station Park Green (482)","Northern California Charla Neta Station Park Green (482)","400+"
"178",9536,"486","Fourth & Madison","Unknown","Essex","Y","N","Residential",94607,"Northern California",NA,"#UNKN","Oakland","#IRREL",NA,NA,"N","Unknown",90,90,"Other","Northern CA","#UNKN",NA,NA,"Other","N","NA","NA","#UNKN","",NA,"Fourth & Madison","486",0,"Fourth & Madison (486)","Northern California #UNKN Fourth & Madison (486)",NA
"179",7995,"490","Marquis","Unknown","Essex","Y","Y","Residential",95112,"Northern California","Santa Clara","San Jose MSA","San Jose","Stabilized",NA,166,"Y","Unknown",37.3561595,-121.8951408,"Same Store","Northern CA","Ben Egge",NA,NA,"Same Store","Y","NA","NA","2015",">5 <10 Years","Santa Clara","Marquis","490",0,"Marquis (490)","Northern California Ben Egge Marquis (490)","<200"
"180",5620,"498","Galloway, The","Unknown","Essex","Y","Y","Residential",94588,"Northern California","Alameda","San Ramon","Pleasanton","Stabilized",NA,506,"Y","Unknown",37.697776,-121.898232,"Non Same Store","Northern CA","Abigail Dizon",NA,NA,"Non Same Store","Y","NA","NA","2016","<5 Years","Alameda","Galloway, The","498",0,"Galloway, The (498)","Northern California Abigail Dizon Galloway, The (498)","400+"
"181",5370,"581","Radius","Unknown","Essex","Y","Y","Residential",94063,"Northern California","San Mateo","San Mateo","Redwood City","Stabilized",NA,264,"Y","Unknown",37.492643,-122.232131,"Same Store","Northern CA","Davina Slusher",NA,NA,"Same Store","Y","NA","NA","2014",">5 <10 Years","San Mateo","Radius","581 & 581jc",0,"Radius (581 & 581jc)","Northern California Davina Slusher Radius (581 & 581jc)",">200 Units"
"182",5434,"582","MB360","Unknown","Essex","Y","Y","Residential",94158,"Northern California","San Francisco","San Francisco","San Francisco","Stabilized",NA,360,"Y","Unknown",37.771498,-122.393777,"Same Store","Northern CA","Erica Rangel",NA,NA,"Same Store","Y","NA","NA","2014",">5 <10 Years","San Francisco","MB360","582 & 582jc",0,"MB360 (582 & 582jc)","Northern California Erica Rangel MB360 (582 & 582jc)",">300 Units"
"183",1965,"365","Epic","Unknown","Essex","Y","Y","Residential",95134,"Northern California","Santa Clara","San Jose MSA","San Jose","Stabilized",NA,769,"Y","Unknown",37.399349,-121.920403,"Non Same Store","Northern CA","Charla Neta",NA,NA,"Non Same Store","Y","1n2bi01s","Epic and Epic III","2013",">5 <10 Years","Santa Clara","Epic","EPLP 364-365",0,"Epic (EPLP 364-365)","Northern California Charla Neta Epic (EPLP 364-365)","400+"
"184",8092,"411","Villa Veneto","Unknown","Essex","Y","Y","Residential",95123,"Northern California","Santa Clara","San Jose MSA","San Jose","Stabilized",NA,226,"Y","Unknown",37.241592,-121.8090335,"Same Store","Northern CA","Robyn Inaba",NA,NA,"Same Store","Y","NA","NA","2000",">20 <30 Years","Santa Clara","Palm Valley","EPLP 411-414",0,"Palm Valley (EPLP 411-414)","Northern California Robyn Inaba Palm Valley (EPLP 411-414)",">200 Units"
"185",8093,"412","Palma Sorrento","Unknown","Essex","Y","Y","Residential",95123,"Northern California","Santa Clara","San Jose MSA","San Jose","Stabilized",NA,275,"Y","Unknown",37.241592,-121.8090335,"Same Store","Northern CA","Robyn Inaba",NA,NA,"Same Store","Y","NA","NA","2001",">15 <20 Years","Santa Clara","Palm Valley","EPLP 411-414",0,"Palm Valley (EPLP 411-414)","Northern California Robyn Inaba Palm Valley (EPLP 411-414)",">200 Units"
"186",8094,"413","Santa Palmia","Unknown","Essex","Y","Y","Residential",95123,"Northern California","Santa Clara","San Jose MSA","San Jose","Stabilized",NA,598,"Y","Unknown",37.241592,-121.8090335,"Same Store","Northern CA","Robyn Inaba",NA,NA,"Same Store","Y","NA","NA","2003",">15 <20 Years","Santa Clara","Palm Valley","EPLP 411-414",0,"Palm Valley (EPLP 411-414)","Northern California Robyn Inaba Palm Valley (EPLP 411-414)","400+"
"187",6214,"495","500 Folsom","Unknown","Essex","Y","Y","Residential",94105,"Northern California","San Francisco","San Francisco","San Francisco","Non Stabilized",NA,537,"N","Unknown",37.787338,-122.394651,"Block 9","Northern CA","Nicole Conrad",NA,NA,"Block 9","Y","NA","NA","#UNKN","","San Francisco","500 Folsom","EPLP 493, 495-497",0,"500 Folsom (EPLP 493, 495-497)","Northern California Nicole Conrad 500 Folsom (EPLP 493, 495-497)","400+"
"188",8233,"493","500 Folsom Upper MRU","Unknown","Essex","Y","Y","Residential",94107,"Northern California","San Francisco","San Francisco","San Francisco","Non Stabilized",NA,0,"N","Unknown",-122.395,37.787338,"Block 9","Northern CA","Nicole Conrad",NA,NA,"Block 9","Y","NA","NA","#UNKN","","San Francisco","500 Folsom","EPLP 493, 495-497",0,"500 Folsom (EPLP 493, 495-497)","Northern California Nicole Conrad 500 Folsom (EPLP 493, 495-497)","<200"
"189",8234,"496","500 Folsom MRU","Unknown","Essex","Y","Y","Residential",94107,"Northern California","San Francisco","San Francisco","San Francisco","Non Stabilized",NA,0,"N","Unknown",-122.395,37.787338,"Block 9","Northern CA","Nicole Conrad",NA,NA,"Block 9","Y","NA","NA","#UNKN","","San Francisco","500 Folsom","EPLP 493, 495-497",0,"500 Folsom (EPLP 493, 495-497)","Northern California Nicole Conrad 500 Folsom (EPLP 493, 495-497)","<200"
"190",8235,"497","500 Folsom Affordable","Unknown","Essex","Y","Y","Residential",94107,"Northern California","San Francisco","San Francisco","San Francisco","Non Stabilized",NA,0,"N","Unknown",-122.395,37.787338,"Block 9","Northern CA","#UNKN",NA,NA,"Block 9","Y","NA","NA","#UNKN","","San Francisco","500 Folsom","EPLP 493, 495-497",0,"500 Folsom (EPLP 493, 495-497)","Northern California #UNKN 500 Folsom (EPLP 493, 495-497)","<200"
"191",5058,"lax1121","Village Green","Unknown","Essex","Y","Y","Residential",90631,"Southern California","Orange","North Orange","La Habra","Stabilized",NA,272,"Y","Unknown",33.9211979,-117.96039,"Same Store","OC/San Diego","Mark Yepez",NA,NA,"Same Store","Y","NA","NA","1971","40+ Years","Orange","Village Green","lax1121",0,"Village Green (lax1121)","Southern California Mark Yepez Village Green (lax1121)",">200 Units"
"192",5037,"lax1129","The Havens","Unknown","Essex","Y","Y","Residential",92708,"Southern California","Orange","North Orange","Fountain Valley","Stabilized",NA,440,"N","Unknown",33.7091035,-117.9494485,"BEX AEW","OC/San Diego","Cynthia Cifuentes",NA,NA,"BEX AEW","Y","NA","NA","1969","40+ Years","Orange","The Havens","lax1129",0,"The Havens (lax1129)","Southern California Cynthia Cifuentes The Havens (lax1129)","400+"
"193",5059,"lax1166","Pinnacle at MacArthur Place","Unknown","Essex","Y","Y","Residential",92707,"Southern California","Orange","North Orange","Santa Ana","Stabilized",NA,253,"Y","Unknown",33.701094,-117.866886,"Same Store","OC/San Diego","Cynthia Cifuentes",NA,NA,"Same Store","Y","NA","NA","2002",">15 <20 Years","Orange","Pinnacle at MacArthur Place","lax1166",0,"Pinnacle at MacArthur Place (lax1166)","Southern California Cynthia Cifuentes Pinnacle at MacArthur Place (lax1166)",">200 Units"
"194",5061,"lax1184","Villa Siena","Unknown","Essex","Y","Y","Residential",92626,"Southern California","Orange","South Orange","Costa Mesa","Stabilized",NA,272,"Y","Unknown",33.676981,-117.909815,"Same Store","OC/San Diego","Cynthia Cifuentes",NA,NA,"Same Store","Y","NA","NA","1974","40+ Years","Orange","Villa Siena","lax1184",0,"Villa Siena (lax1184)","Southern California Cynthia Cifuentes Villa Siena (lax1184)",">200 Units"
"195",5062,"lax1199","Pinnacle at Fullerton","Unknown","Essex","Y","Y","Residential",92832,"Southern California","Orange","North Orange","Fullerton","Stabilized",NA,192,"Y","Unknown",33.870467,-117.920457,"Same Store","OC/San Diego","Brent Christianson",NA,NA,"Same Store","Y","NA","NA","2004",">15 <20 Years","Orange","Pinnacle at Fullerton","lax1199",0,"Pinnacle at Fullerton (lax1199)","Southern California Brent Christianson Pinnacle at Fullerton (lax1199)","<200"
"196",5064,"lax1201","Pinnacle at Talega","Unknown","Essex","Y","Y","Residential",92673,"Southern California","Orange","South Orange","San Clemente","Stabilized",NA,362,"Y","Unknown",33.459137,-117.573827,"Same Store","OC/San Diego","Kevin Forsyth",NA,NA,"Same Store","Y","NA","NA","2002",">15 <20 Years","Orange","Pinnacle at Talega","lax1201",0,"Pinnacle at Talega (lax1201)","Southern California Kevin Forsyth Pinnacle at Talega (lax1201)",">300 Units"
"197",5065,"lax1209","Cortesia","Unknown","Essex","Y","Y","Residential",92688,"Southern California","Orange","South Orange","RanchoSantaMargarita","Stabilized",NA,308,"Y","Unknown",33.652351,-117.611561,"Same Store","OC/San Diego","Kevin Forsyth",NA,NA,"Same Store","Y","NA","NA","1999",">20 <30 Years","Orange","Cortesia","lax1209",0,"Cortesia (lax1209)","Southern California Kevin Forsyth Cortesia (lax1209)",">300 Units"
"198",5028,"lax1217","The Fairways at Westridge","Unknown","Essex","Y","Y","Residential",91381,"Southern California","Los Angeles","Other SoCal","Valencia","Stabilized",NA,234,"N","Unknown",34.411337,-118.58008,"Wesco IV","LA/Ventura","Elizabeth Rodriguez",NA,NA,"Wesco IV","Y","NA","NA","2004",">15 <20 Years","Los Angeles","The Fairways at Westridge","lax1217",0,"The Fairways at Westridge (lax1217)","Southern California Elizabeth Rodriguez The Fairways at Westridge (lax1217)",">200 Units"
"199",5066,"lax1226","The Palms at Laguna Niguel","Unknown","Essex","Y","Y","Residential",92677,"Southern California","Orange","South Orange","Laguna Niguel","Stabilized",NA,460,"Y","Unknown",33.553144,-117.697155,"Same Store","OC/San Diego","Kevin Forsyth",NA,NA,"Same Store","Y","NA","NA","1988",">30 <40 Years","Orange","The Palms at Laguna Niguel","lax1226",0,"The Palms at Laguna Niguel (lax1226)","Southern California Kevin Forsyth The Palms at Laguna Niguel (lax1226)","400+"
"200",5047,"lax1228","The Stuart at Sierra Madre Villa","Unknown","Essex","Y","Y","Residential",91107,"Southern California","Los Angeles","Tri-Cities LA","Pasadena","Stabilized",NA,188,"Y","Unknown",34.15006,-118.0824654,"Same Store","LA/Ventura","Crystal Rodgers",NA,NA,"Same Store","Y","NA","NA","2007",">10 <15 Years","Los Angeles","The Stuart at Sierra Madre Villa","lax1228",0,"The Stuart at Sierra Madre Villa (lax1228)","Southern California Crystal Rodgers The Stuart at Sierra Madre Villa (lax1228)","<200"
"201",5045,"lax1232","Emerald Pointe","Unknown","Essex","Y","Y","Residential",91765,"Southern California","Los Angeles","Other SoCal","Diamond Bar","Stabilized",NA,160,"Y","Unknown",33.972957,-117.837519,"Same Store","LA/Ventura","Mark Yepez",NA,NA,"Same Store","Y","NA","NA","1989",">30 <40 Years","Los Angeles","Emerald Pointe","lax1232",0,"Emerald Pointe (lax1232)","Southern California Mark Yepez Emerald Pointe (lax1232)","<200"
"202",5029,"lax1233","Bridgeport Coast","Unknown","Essex","Y","Y","Residential",91355,"Southern California","Los Angeles","Other SoCal","Santa Clarita","Stabilized",NA,188,"N","Unknown",34.4318386,-118.5579926,"Wesco IV","LA/Ventura","Elizabeth Rodriguez",NA,NA,"Wesco IV","Y","NA","NA","2006",">10 <15 Years","Los Angeles","Bridgeport Coast","lax1233",0,"Bridgeport Coast (lax1233)","Southern California Elizabeth Rodriguez Bridgeport Coast (lax1233)","<200"
"203",5024,"lax1239","Regency Palm Court","Unknown","Essex","Y","Y","Residential",90019,"Southern California","Los Angeles","West LA","Los Angeles","Stabilized",NA,116,"N","Unknown",34.055175,-118.313744,"Wesco III","LA/Ventura","Richard Resos",NA,NA,"Wesco III","Y","NA","NA","1987",">30 <40 Years","Los Angeles","Regency Palm Court","lax1239",0,"Regency Palm Court (lax1239)","Southern California Richard Resos Regency Palm Court (lax1239)","<200"
"204",5025,"lax1240","Windsor Court","Unknown","Essex","Y","Y","Residential",90006,"Southern California","Los Angeles","West LA","Los Angeles","Stabilized",NA,95,"N","Unknown",34.0547724,-118.3006321,"Wesco III","LA/Ventura","Richard Resos",NA,NA,"Wesco III","Y","NA","NA","1987",">30 <40 Years","Los Angeles","Windsor Court","lax1240",0,"Windsor Court (lax1240)","Southern California Richard Resos Windsor Court (lax1240)","<200"
"205",5048,"lax1241","Tiffany Court","Unknown","Essex","Y","Y","Residential",90036,"Southern California","Los Angeles","West LA","Los Angeles","Stabilized",NA,101,"Y","Unknown",34.0643079,-118.352187,"Same Store","LA/Ventura","Selena Kerr",NA,NA,"Same Store","Y","NA","NA","1987",">30 <40 Years","Los Angeles","Tiffany Court","lax1241",0,"Tiffany Court (lax1241)","Southern California Selena Kerr Tiffany Court (lax1241)","<200"
"206",5067,"lax1242","Renaissance at Uptown Orange","Unknown","Essex","Y","Y","Residential",92868,"Southern California","Orange","North Orange","Orange","Stabilized",NA,460,"Y","Unknown",33.788154,-117.884052,"Same Store","OC/San Diego","Brent Christianson",NA,NA,"Same Store","Y","NA","NA","2007",">10 <15 Years","Orange","Renaissance at Uptown Orange","lax1242",0,"Renaissance at Uptown Orange (lax1242)","Southern California Brent Christianson Renaissance at Uptown Orange (lax1242)","400+"
"207",5049,"lax1245","Alessio","Unknown","Essex","Y","Y","Residential",90045,"Southern California","Los Angeles","West LA","Los Angeles","Stabilized",NA,624,"Y","Unknown",33.976277,-118.381661,"Same Store","LA/Ventura","Lisa Holbrook",NA,NA,"Same Store","Y","NA","NA","2001",">15 <20 Years","Los Angeles","Alessio","lax1245",0,"Alessio (lax1245)","Southern California Lisa Holbrook Alessio (lax1245)","400+"
"208",5050,"lax1249","5600 Wilshire","Unknown","Essex","Y","Y","Residential",90036,"Southern California","Los Angeles","West LA","Los Angeles","Stabilized",NA,284,"Y","Unknown",34.06209,-118.343355,"Same Store","LA/Ventura","Selena Kerr",NA,NA,"Same Store","Y","NA","NA","2008",">10 <15 Years","Los Angeles","5600 Wilshire","lax1249",0,"5600 Wilshire (lax1249)","Southern California Selena Kerr 5600 Wilshire (lax1249)",">200 Units"
"209",5068,"lax1251","Park Viridian","Unknown","Essex","Y","Y","Residential",92805,"Southern California","Orange","North Orange","Anaheim","Stabilized",NA,320,"Y","Unknown",33.8035871,-117.8930435,"Same Store","OC/San Diego","Brent Christianson",NA,NA,"Same Store","Y","NA","NA","2008",">10 <15 Years","Orange","Park Viridian","lax1251",0,"Park Viridian (lax1251)","Southern California Brent Christianson Park Viridian (lax1251)",">300 Units"
"210",5051,"lax1255","Catalina Gardens","Unknown","Essex","Y","Y","Residential",90020,"Southern California","Los Angeles","West LA","Los Angeles","Stabilized",NA,128,"Y","Unknown",34.068161,-118.295521,"Same Store","LA/Ventura","Richard Resos",NA,NA,"Same Store","Y","NA","NA","1987",">30 <40 Years","Los Angeles","Catalina Gardens","lax1255",0,"Catalina Gardens (lax1255)","Southern California Richard Resos Catalina Gardens (lax1255)","<200"
"211",5052,"lax1259","Wilshire La Brea","Unknown","Essex","Y","Y","Residential",90036,"Southern California","Los Angeles","West LA","Los Angeles","Stabilized",NA,478,"Y","Unknown",34.061898,-118.343351,"Same Store","LA/Ventura","Selena Kerr",NA,NA,"Same Store","Y","NA","NA","2013",">5 <10 Years","Los Angeles","Wilshire La Brea","lax1259",0,"Wilshire La Brea (lax1259)","Southern California Selena Kerr Wilshire La Brea (lax1259)","400+"
"212",5054,"lax1276","Aqua at Marina Del Rey","Unknown","Essex","Y","Y","Residential",90292,"Southern California","Los Angeles","West LA","Marina Del Rey","Stabilized",NA,500,"Y","Unknown",33.9795027,-118.4376618,"Same Store","LA/Ventura","Lisa Holbrook",NA,NA,"Same Store","Y","NA","NA","2001",">15 <20 Years","Los Angeles","Aqua at Marina Del Rey","lax1276",0,"Aqua at Marina Del Rey (lax1276)","Southern California Lisa Holbrook Aqua at Marina Del Rey (lax1276)","400+"
"213",5030,"lax1279","The Vistas of West Hills","Unknown","Essex","Y","Y","Residential",91354,"Southern California","Los Angeles","Other SoCal","Valencia","Stabilized",NA,220,"N","Unknown",34.462547,-118.561635,"Wesco IV","LA/Ventura","Elizabeth Rodriguez",NA,NA,"Wesco IV","Y","NA","NA","2009",">10 <15 Years","Los Angeles","The Vistas of West Hills","lax1279",0,"The Vistas of West Hills (lax1279)","Southern California Elizabeth Rodriguez The Vistas of West Hills (lax1279)",">200 Units"
"214",5038,"lax4004","Parkside Court","Unknown","Essex","Y","Y","Residential",92703,"Southern California","Orange","North Orange","Santa Ana","Stabilized",NA,210,"N","Unknown",33.7450407,-117.9258179,"BEX AEW","OC/San Diego","Kevin Forsyth",NA,NA,"BEX AEW","Y","NA","NA","1986",">30 <40 Years","Orange","Parkside Court","lax4004",0,"Parkside Court (lax4004)","Southern California Kevin Forsyth Parkside Court (lax4004)",">200 Units"
"215",5095,"pnw1105","Parkwood at Mill Creek","Unknown","Essex","Y","Y","Residential",98012,"Seattle Metro","Snohomish","Snohomish","Mill Creek","Stabilized",NA,240,"Y","Unknown",47.8580506,-122.2162815,"Same Store","Washington","Carol Swanson",NA,NA,"Same Store","Y","NA","NA","1989",">30 <40 Years","Snohomish","Parkwood at Mill Creek","pnw1105",0,"Parkwood at Mill Creek (pnw1105)","Seattle Metro Carol Swanson Parkwood at Mill Creek (pnw1105)",">200 Units"
"216",5096,"pnw1107","Shadowbrook","Unknown","Essex","Y","Y","Residential",98052,"Seattle Metro","King","Eastside","Redmond","Stabilized",NA,418,"Y","Unknown",47.6791428,-122.1447515,"Same Store","Washington","Jamie Matthews",NA,NA,"Same Store","Y","NA","NA","1986",">30 <40 Years","King","Shadowbrook","pnw1107",0,"Shadowbrook (pnw1107)","Seattle Metro Jamie Matthews Shadowbrook (pnw1107)","400+"
"217",5041,"pnw1126","Bothell Ridge","Unknown","Essex","Y","Y","Residential",98012,"Seattle Metro","Snohomish","Snohomish","Bothell","Stabilized",NA,214,"N","Unknown",47.816937,-122.207787,"BEX AEW","Washington","Kim Levesque",NA,NA,"BEX AEW","Y","NA","NA","1988",">30 <40 Years","Snohomish","Bothell Ridge","pnw1126",0,"Bothell Ridge (pnw1126)","Seattle Metro Kim Levesque Bothell Ridge (pnw1126)",">200 Units"
"218",5097,"pnw1159","Park Highland","Unknown","Essex","Y","Y","Residential",98005,"Seattle Metro","King","Eastside","Bellevue","Stabilized",NA,250,"Y","Unknown",47.607143,-122.18126,"Same Store","Washington","Suzanne Bachler",NA,NA,"Same Store","Y","NA","NA","1993",">20 <30 Years","King","Park Highland","pnw1159",0,"Park Highland (pnw1159)","Seattle Metro Suzanne Bachler Park Highland (pnw1159)",">200 Units"
"219",5099,"pnw1162","BellCentre","Unknown","Essex","Y","Y","Residential",98004,"Seattle Metro","King","Eastside","Bellevue","Stabilized",NA,248,"Y","Unknown",47.6127321327,-122.1960945915,"Same Store","Washington","Melissa Downs",NA,NA,"Same Store","Y","NA","NA","2001",">15 <20 Years","King","BellCentre","pnw1162",0,"BellCentre (pnw1162)","Seattle Metro Melissa Downs BellCentre (pnw1162)",">200 Units"
"220",5101,"pnw1163","Pinnacle Sonata","Unknown","Essex","Y","Y","Residential",98021,"Seattle Metro","Snohomish","Snohomish","Bothell","Stabilized",NA,268,"Y","Unknown",47.7818619,-122.17792,"Same Store","Washington","Kim Levesque",NA,NA,"Same Store","Y","NA","NA","2000",">20 <30 Years","Snohomish","Pinnacle Sonata","pnw1163",0,"Pinnacle Sonata (pnw1163)","Seattle Metro Kim Levesque Pinnacle Sonata (pnw1163)",">200 Units"
"221",5102,"pnw1191","Pinnacle on Lake Washington","Unknown","Essex","Y","Y","Residential",98056,"Seattle Metro","King","South","Renton","Stabilized",NA,180,"Y","Unknown",47.504853,-122.199026,"Same Store","Washington","Sherrie Clevenger",NA,NA,"Same Store","Y","NA","NA","2001",">15 <20 Years","King","Pinnacle on Lake Washington","pnw1191",0,"Pinnacle on Lake Washington (pnw1191)","Seattle Metro Sherrie Clevenger Pinnacle on Lake Washington (pnw1191)","<200"
"222",5111,"pnw1214","The Audrey at Belltown","Unknown","Essex","Y","Y","Residential",98121,"Seattle Metro","King","Seattle CBD","Seattle","Stabilized",NA,137,"Y","Unknown",47.6167697473,-122.3539544142,"Same Store","Washington","Jillian LeMay",NA,NA,"Same Store","Y","NA","NA","1992",">20 <30 Years","King","The Audrey at Belltown","pnw1214",0,"The Audrey at Belltown (pnw1214)","Seattle Metro Jillian LeMay The Audrey at Belltown (pnw1214)","<200"
"223",5103,"pnw1243","The Trails of Redmond","Unknown","Essex","Y","Y","Residential",98052,"Seattle Metro","King","Eastside","Redmond","Stabilized",NA,423,"Y","Unknown",47.6425898,-122.1192546,"Same Store","Washington","Suzanne Bachler",NA,NA,"Same Store","Y","NA","NA","1985",">30 <40 Years","King","The Trails of Redmond","pnw1243",0,"The Trails of Redmond (pnw1243)","Seattle Metro Suzanne Bachler The Trails of Redmond (pnw1243)","400+"
"224",5104,"pnw1246","Belcarra","Unknown","Essex","Y","Y","Residential",98004,"Seattle Metro","King","Eastside","Bellevue","Stabilized",NA,296,"Y","Unknown",47.619747,-122.19824,"Same Store","Washington","Melissa Downs",NA,NA,"Same Store","Y","NA","NA","2009",">10 <15 Years","King","Belcarra","pnw1246",0,"Belcarra (pnw1246)","Seattle Metro Melissa Downs Belcarra (pnw1246)",">200 Units"
"225",5106,"pnw1247","Taylor 28","Unknown","Essex","Y","Y","Residential",98109,"Seattle Metro","King","Seattle CBD","Seattle","Stabilized",NA,197,"Y","Unknown",47.619407,-122.34615,"Same Store","Washington","Jillian LeMay",NA,NA,"Same Store","Y","NA","NA","2008",">10 <15 Years","King","Taylor 28","pnw1247",0,"Taylor 28 (pnw1247)","Seattle Metro Jillian LeMay Taylor 28 (pnw1247)","<200"
"226",5108,"pnw1260","Aviara","Unknown","Essex","Y","Y","Residential",98040,"Seattle Metro","King","Eastside","Mercer Island","Stabilized",NA,166,"Y","Unknown",47.588846,-122.237825,"Same Store","Washington","Jillian LeMay",NA,NA,"Same Store","Y","NA","NA","2013",">5 <10 Years","King","Aviara","pnw1260",0,"Aviara (pnw1260)","Seattle Metro Jillian LeMay Aviara (pnw1260)","<200"
"227",5069,"san1100","Montanosa","Unknown","Essex","Y","Y","Residential",92124,"Southern California","San Diego","North City/Coast","San Diego","Stabilized",NA,472,"Y","Unknown",32.838158,-117.090563,"Same Store","OC/San Diego","Nick Allen",NA,NA,"Same Store","Y","NA","NA","1990",">30 <40 Years","San Diego","Montanosa","san1100",0,"Montanosa (san1100)","Southern California Nick Allen Montanosa (san1100)","400+"
"228",5039,"san1101","Esplanade San Diego","Unknown","Essex","Y","Y","Residential",92126,"Southern California","San Diego","North City/Coast","San Diego","Stabilized",NA,616,"N","Unknown",32.9030038,-117.1440094,"BEX AEW","OC/San Diego","Nick Allen",NA,NA,"BEX AEW","Y","NA","NA","1986",">30 <40 Years","San Diego","Esplanade San Diego","san1101",0,"Esplanade San Diego (san1101)","Southern California Nick Allen Esplanade San Diego (san1101)","400+"
"229",5070,"san1134","Cambridge Park","Unknown","Essex","Y","Y","Residential",92123,"Southern California","San Diego","North City/Coast","San Diego","Stabilized",NA,320,"Y","Unknown",32.8053385,-117.1181273,"Same Store","OC/San Diego","Jenifer Bulskov",NA,NA,"Same Store","Y","NA","NA","1998",">20 <30 Years","San Diego","Cambridge Park","san1134",0,"Cambridge Park (san1134)","Southern California Jenifer Bulskov Cambridge Park (san1134)",">300 Units"
"230",5071,"san1142","Carmel Creek","Unknown","Essex","Y","Y","Residential",92130,"Southern California","San Diego","North City/Coast","San Diego","Stabilized",NA,348,"Y","Unknown",32.93275,-117.223624,"Same Store","OC/San Diego","Jenifer Bulskov",NA,NA,"Same Store","Y","NA","NA","2000",">20 <30 Years","San Diego","Carmel Creek","san1142",0,"Carmel Creek (san1142)","Southern California Jenifer Bulskov Carmel Creek (san1142)",">300 Units"
"231",5072,"san1190","Carmel Landing","Unknown","Essex","Y","Y","Residential",92128,"Southern California","San Diego","North City/Coast","San Diego","Stabilized",NA,356,"Y","Unknown",32.975098,-117.082822,"Same Store","OC/San Diego","Nick Allen",NA,NA,"Same Store","Y","NA","NA","1989",">30 <40 Years","San Diego","Carmel Landing","san1190",0,"Carmel Landing (san1190)","Southern California Nick Allen Carmel Landing (san1190)",">300 Units"
"232",5073,"san1193","Pinnacle at Otay Ranch","Unknown","Essex","Y","Y","Residential",91913,"Southern California","San Diego","Chula Vista","Chula Vista","Stabilized",NA,364,"Y","Unknown",32.622115,-116.999402,"Same Store","OC/San Diego","Jenifer Bulskov",NA,NA,"Same Store","Y","NA","NA","2001",">15 <20 Years","San Diego","Pinnacle at Otay Ranch","san1193",0,"Pinnacle at Otay Ranch (san1193)","Southern California Jenifer Bulskov Pinnacle at Otay Ranch (san1193)",">300 Units"
"233",5074,"san1231","Bernardo Crest","Unknown","Essex","Y","Y","Residential",92128,"Southern California","San Diego","North City/Coast","San Diego","Stabilized",NA,216,"Y","Unknown",33.0134267,-117.0753166,"Same Store","OC/San Diego","Nick Allen",NA,NA,"Same Store","Y","NA","NA","1988",">30 <40 Years","San Diego","Bernardo Crest","san1231",0,"Bernardo Crest (san1231)","Southern California Nick Allen Bernardo Crest (san1231)",">200 Units"
"234",5075,"san1258","Carmel Summit","Unknown","Essex","Y","Y","Residential",92128,"Southern California","San Diego","North City/Coast","San Diego","Stabilized",NA,246,"Y","Unknown",32.9790637,-117.0767801,"Same Store","OC/San Diego","Nick Allen",NA,NA,"Same Store","Y","NA","NA","1989",">30 <40 Years","San Diego","Carmel Summit","san1258",0,"Carmel Summit (san1258)","Southern California Nick Allen Carmel Summit (san1258)",">200 Units"
